name,city,country,IATA,latitude,longitude,population
Rabah Bitat Airport,Annaba,Algeria,AAE,36.822201,7.809174,2117569
Aalborg Airport,Aalborg,Denmark,AAL,57.0927589138,9.84924316406,543701
Al Ain International Airport,Al Ain,United Arab Emirates,AAN,24.261699676513672,55.60919952392578,153045
Anapa Vityazevo Airport,Anapa,Russia,AAQ,45.002101898193,37.347301483154,584634
Aarhus Airport,Aarhus,Denmark,AAR,56.2999992371,10.619000434899998,440246
Altay Air Base,Altay,China,AAT,47.7498855591,88.08580780030002,498808
Romeu Zema Airport,Araxa,Brazil,AAX,-19.563199996948,-46.960399627686,493762
Al Ghaidah International Airport,Al Ghaidah Intl,Yemen,AAY,16.191699981689453,52.17499923706055,128348
Abakan Airport,Abakan,Russia,ABA,53.7400016784668,91.38500213623048,689253
Asaba International Airport,Asaba,Nigeria,ABB,6.204167,6.665278,7931247
Abadan Airport,Abadan,Iran,ABD,30.371099472,48.2282981873,1303983
Lehigh Valley International Airport,Allentown,United States,ABE,40.652099609375,-75.44080352783203,707841
Abilene Regional Airport,Abilene,United States,ABI,32.4113006592,-99.6819000244,137394
Port Bouet Airport,Abidjan,Cote d'Ivoire,ABJ,5.261390209197998,-3.9262900352478023,11578814
Ambler Airport,Ambler,United States,ABL,67.1063,-157.856989,539
Northern Peninsula Airport,Amberley,Australia,ABM,-10.9508,142.459,4078
Albuquerque International Sunport,Albuquerque,United States,ABQ,35.040199,-106.609001,814543
Aberdeen Regional Airport,Aberdeen,United States,ABR,45.449100494384766,-98.42179870605467,86507
Abu Simbel Airport,Abu Simbel,Egypt,ABS,22.3759994507,31.611700058,140194
Al Baha Airport,El-baha,Saudi Arabia,ABT,20.2961006165,41.6343002319,631299
Nnamdi Azikiwe International Airport,Abuja,Nigeria,ABV,9.006790161132812,7.263169765472412,29310002
Albury Airport,Albury,Australia,ABX,-36.06779861450195,146.95799255371094,175411
Southwest Georgia Regional Airport,Albany,United States,ABY,31.535499572753903,-84.19450378417969,182452
Aberdeen Dyce Airport,Aberdeen,United Kingdom,ABZ,57.20190048217773,-2.197779893875122,632086
General Juan N Alvarez International Airport,Acapulco,Mexico,ACA,16.757099151611328,-99.75399780273438,1083674
Kotoka International Airport,Accra,Ghana,ACC,5.605189800262451,-0.1667860001325607,13678900
Lanzarote Airport,Arrecife,Spain,ACE,28.945499,-13.6052,341689
St Gallen Altenrhein Airport,Altenrhein,Switzerland,ACH,47.4850006104,9.560770034789998,341919
Alderney Airport,Alderney,Guernsey,ACI,49.706104,-2.21472,227435
Nantucket Memorial Airport,Nantucket,United States,ACK,41.25310135,-70.06020355,370630
Araracuara Airport,Araracuara,Colombia,ACR,-0.5833,-72.4083,74053
Waco Regional Airport,Waco,United States,ACT,31.611299514770508,-97.23049926757812,279215
California Redwood Coast-Humboldt County Airport,Arcata CA,United States,ACV,40.978101,-124.109,180730
Xingyi Airport,Xingyi,China,ACX,25.0863888889,104.959444444,3067450
Atlantic City International Airport,Atlantic City,United States,ACY,39.45759963989258,-74.57720184326172,544185
Zabol Airport,Zabol,Iran,ACZ,31.09830093383789,61.54389953613281,543276
Adana Airport,Adana,Turkey,ADA,36.9822006226,35.2803993225,5179925
Adnan Menderes International Airport,Izmir,Turkey,ADB,38.2924003601,27.156999588,2343630
Addis Ababa Bole International Airport,Addis Ababa,Ethiopia,ADD,8.97789001465,38.7993011475,38098998
Aden International Airport,Aden,Yemen,ADE,12.829500198364258,45.02880096435547,3637685
Adıyaman Airport,Adiyaman,Turkey,ADF,37.7313995361,38.4688987732,1729676
Adak Airport,Adak Island,United States,ADK,51.87799835205078,-176.64599609375,121
Adelaide International Airport,Adelaide,Australia,ADL,-34.945,138.531006,1228213
Kodiak Airport,Kodiak,United States,ADQ,57.75,-152.4940033,95
Ardabil Airport,Ardabil,Iran,ADU,38.3256988525,48.4244003296,1243621
Gustavo Rojas Pinilla International Airport,San Andres Island,Colombia,ADZ,12.5836,-81.7112,94031
Baise Youjiang Airport,Baise,China,AEB,23.7206001282,106.959999084,2239568
Jorge Newbery Airpark,Buenos Aires,Argentina,AEP,-34.5592,-58.4156,13519397
Sochi International Airport,Sochi,Russia,AER,43.449902,39.9566,1571571
Ålesund Airport,Alesund,Norway,AES,62.5625,6.119699954986572,109538
Allakaket Airport,Allakaket,United States,AET,66.5518035889,-152.621994019,249
Alexandria International Airport,Alexandria,United States,AEX,31.32740020751953,-92.54979705810548,393255
Akureyri Airport,Akureyri,Iceland,AEY,65.66000366210938,-18.07270050048828,40733
Suboficial Ay Santiago Germano Airport,San Rafael,Argentina,AFA,-34.588299,-68.4039,412679
Piloto Osvaldo Marques Dias Airport,Alta Floresta,Brazil,AFL,-9.8663892746,-56.1049995422,324812
Sabzevar National Airport,Sabzevar,Iran,AFZ,36.16809844970703,57.59519958496094,933909
Al Massira Airport,Agadir,Morocco,AGA,30.325000762939453,-9.41306972503662,1761543
Augsburg Airport,Augsburg,Germany,AGB,48.425278,10.931667,184770
Agen-La Garenne Airport,Agen,France,AGF,44.17470169067383,0.5905560255050659,314930
Ängelholm-Helsingborg Airport,Ängelholm,Sweden,AGH,56.29610061645508,12.847100257873535,185273
Málaga Airport,Malaga,Spain,AGP,36.67490005493164,-4.499110221862793,7472988
Agra Airport,Agra,India,AGR,27.155799865722656,77.96089935302734,11882520
Augusta Regional At Bush Field,Bush Field,United States,AGS,33.36989974975586,-81.9645004272461,221061
Guarani International Airport,Ciudad del Este,Paraguay,AGT,-25.454516,-54.842682,849843
Jesús Terán Paredo International Airport,Aguascalientes,Mexico,AGU,21.705601,-102.318001,2763858
Agatti Airport,Agatti Island,India,AGX,10.823699951171877,72.1760025024414,57081
Abha Regional Airport,Abha,Saudi Arabia,AHB,18.2404003143,42.65660095210001,2739174
Ahe Airport,Ahe,French Polynesia,AHE,-14.428099632263184,-146.2570037841797,1510
Athens Ben Epps Airport,Athens,United States,AHN,33.94860076904297,-83.32630157470703,173816
Alghero-Fertilia Airport,Alghero,Italy,AHO,40.632099,8.29077,392545
Cherif Al Idrissi Airport,Al Hociema,Morocco,AHU,35.177101135253906,-3.83951997756958,696278
Alliance Municipal Airport,Alliance,United States,AIA,42.0531997681,-102.804000854,30204
Wainwright Airport,Wainwright,United States,AIN,70.6380004883,-159.994995117,1390
Aitutaki Airport,Aitutaki,Cook Islands,AIT,-18.830900192260746,-159.76400756835938,2195
Enua Airport,Atiu Island,Cook Islands,AIU,-19.96780014038086,-158.11900329589844,2593
Ajaccio-Napoléon Bonaparte Airport,Ajaccio,France,AJA,41.92359924316406,8.8029203414917,256652
Al-Jawf Domestic Airport,Al-Jawf,Saudi Arabia,AJF,29.78510093688965,40.09999847412109,371943
Ağrı Airport,Agri,Turkey,AJI,39.654541015625,43.025978088378906,560978
Lengpui Airport,Aizwal,India,AJL,23.8405990601,92.6196975708,5535366
Arvidsjaur Airport,Arvidsjaur,Sweden,AJR,65.59030151367188,19.28190040588379,51860
Atka Airport,Atka,United States,AKB,52.22029877,-174.2059937,273
Kufra Airport,Kufra,Libya,AKF,24.178699493408203,23.31399917602539,21864
Asahikawa Airport,Asahikawa,Japan,AKJ,43.67079925537109,142.44700622558594,395508
Akhiok Airport,Akhiok,United States,AKK,56.9387016296,-154.182998657,16
Auckland International Airport,Auckland,New Zealand,AKL,-37.0080986023,174.792007446,1748784
King Salmon Airport,King Salmon,United States,AKN,58.67679977,-156.6490021,1178
Anaktuvuk Pass Airport,Anaktuvuk Pass,United States,AKP,68.13359833,-151.7429962,156
Aksu Airport,Aksu,China,AKU,41.262501,80.291702,1807508
Akulivik Airport,Akulivik,Canada,AKV,60.81859970092773,-78.14859771728516,946
Aktobe Airport,Aktyubinsk,Kazakhstan,AKX,50.2458,57.206699,583321
Sittwe Airport,Sittwe,Burma,AKY,20.132699966430664,92.87259674072266,1511276
Almaty Airport,Alma-ata,Kazakhstan,ALA,43.35210037231445,77.04049682617188,4116463
Albany International Airport,Albany,United States,ALB,42.74829864501953,-73.80169677734375,1876181
Alicante International Airport,Alicante,Spain,ALC,38.28219985961914,-0.5581560134887695,3985071
Alta Airport,Alta,Norway,ALF,69.976097106934,23.371700286865,24608
Houari Boumediene Airport,Algier,Algeria,ALG,36.69100189208984,3.215409994125366,15755317
Albany Airport,Albany,Australia,ALH,-34.94329833984375,117.80899810791016,35926
Waterloo Regional Airport,Waterloo,United States,ALO,42.55709838867188,-92.40029907226562,148730
San Luis Valley Regional Bergman Field,Alamosa,United States,ALS,37.434898,-105.866997,195342
Walla Walla Regional Airport,Walla Walla,United States,ALW,46.09489822,-118.288002,91730
Rick Husband Amarillo International Airport,Amarillo,United States,AMA,35.219398,-101.706001,331322
Sardar Vallabhbhai Patel International Airport,Ahmedabad,India,AMD,23.0771999359,72.63469696039999,40354648
Arba Minch Airport,Arba Minch,Ethiopia,AMH,6.0393900871276855,37.59049987792969,9366058
Queen Alia International Airport,Amman,Jordan,AMM,31.7226009369,35.9931983948,8572608
"Pattimura Airport, Ambon",Ambon,Indonesia,AMQ,-3.7102599144,128.089004517,1571772
Amsterdam Airport Schiphol,Amsterdam,Netherlands,AMS,52.308601,4.76389,12498155
Ted Stevens Anchorage International Airport,Anchorage,United States,ANC,61.17440032958984,-149.99600219726562,322412
Andrés Sabella Gálvez International Airport,Antofagasta,Chile,ANF,-23.444501,-70.445099,363926
Angoulême-Brie-Champniers Airport,Angouleme,France,ANG,45.72919845581055,0.2214560061693191,269636
Aniak Airport,Aniak,United States,ANI,61.58160018920898,-159.54299926757812,1682
Antsirabato Airport,Antalaha,Madagascar,ANM,-14.99940013885498,50.3202018737793,475231
Antwerp International Airport (Deurne),Antwerp,Belgium,ANR,51.1893997192,4.46027994156,201041
Andahuaylas Airport,Andahuaylas,Peru,ANS,-13.70639991760254,-73.35040283203125,753208
V.C. Bird International Airport,Antigua,Antigua and Barbuda,ANU,17.1367,-61.792702,207281
Anvik Airport,Anvik,United States,ANV,62.646702,-160.190994,384
Andøya Airport,Andoya,Norway,ANX,69.292503356934,16.144199371338,23147
Anadolu Airport,Eskissehir,Turkey,AOE,39.809898,30.5194,465324
Anshan Air Base,Anshan,China,AOG,41.105301,122.853996,2192722
Ancona Falconara Airport,Ancona,Italy,AOI,43.616299,13.3623,499109
Aomori Airport,Aomori,Japan,AOJ,40.73469924926758,140.6909942626953,610432
Karpathos Airport,Karpathos,Greece,AOK,35.4213981628418,27.145999908447266,46091
Altoona Blair County Airport,Altoona,United States,AOO,40.29639816,-78.31999969,296989
Sultan Abdul Halim Airport,Alor Setar,Malaysia,AOR,6.189670085906982,100.39800262451172,866657
Naples Municipal Airport,Naples,United States,APF,26.1525993347,-81.7752990723,89035
Nampula Airport,Nampula,Mozambique,APL,-15.105600357055664,39.28179931640625,6117782
Alpena County Regional Airport,Alpena,United States,APN,45.0780983,-83.56030273,129014
Antonio Roldan Betancourt Airport,Carepa,Colombia,APO,7.81196,-76.7164,1228205
Faleolo International Airport,Faleolo,Samoa,APW,-13.829999923706056,-172.00799560546875,197658
Araraquara Airport,Araracuara,Brazil,AQA,-21.8120002747,-48.1329994202,797085
Anqing Tianzhushan Airport,Anqing,China,AQG,30.582199,117.050003,3973331
Al Qaisumah/Hafr Al Batin Airport,Hafr Al-batin,Saudi Arabia,AQI,28.335199,46.125099,399233
Aqaba King Hussein International Airport,Aqaba,Jordan,AQJ,29.61160087585449,35.01810073852539,157073
Rodríguez Ballón International Airport,Arequipa,Peru,AQP,-16.3411006927,-71.5830993652,1812119
Arctic Village Airport,Arctic Village,United States,ARC,68.1147,-145.578995,212
Talagi Airport,Arkhangelsk,Russia,ARH,64.60030364990234,40.71670150756836,578538
Chacalluta Airport,Arica,Chile,ARI,-18.348499,-70.338699,360156
Arusha Airport,Arusha,Tanzania,ARK,-3.3677899837493896,36.63330078125,871640
Armidale Airport,Armidale,Australia,ARM,-30.5280990601,151.617004395,61687
Stockholm-Arlanda Airport,Stockholm,Sweden,ARN,59.651901245117,17.918600082397,2661081
Watertown International Airport,Watertown,United States,ART,43.99190139770508,-76.02169799804688,192301
Araçatuba Airport,Aracatuba,Brazil,ARU,-21.1413002014,-50.4247016907,998102
Arad International Airport,Arad,Romania,ARW,46.17660140991211,21.261999130249023,464453
Ashgabat International Airport,Ashkhabad,Turkmenistan,ASB,37.986801,58.361,3033495
Aspen-Pitkin Co/Sardy Field,Aspen,United States,ASE,39.22320175,-106.8690033,142305
Astrakhan Airport,Astrakhan,Russia,ASF,46.2832984924,48.0063018799,968132
Amami Airport,Amami,Japan,ASJ,28.430599212646484,129.71299743652344,84137
Asmara International Airport,Asmara,Eritrea,ASM,15.291899681091309,38.91070175170898,4213152
Asosa Airport,Asosa,Ethiopia,ASO,10.018500328063965,34.586299896240234,6177577
Alice Springs Airport,Alice Springs,Australia,ASP,-23.806699752807617,133.90199279785156,30294
Kayseri Erkilet Airport,Kayseri,Turkey,ASR,38.770401001,35.4953994751,1596627
Silvio Pettirossi International Airport,Asuncion,Paraguay,ASU,-25.239999771118164,-57.52000045776367,4085990
Amboseli Airport,Amboseli National Park,Kenya,ASV,-2.645050048828125,37.25310134887695,865028
Aswan International Airport,Aswan,Egypt,ASW,23.9643993378,32.8199996948,1059449
Comandante FAP German Arias Graziani Airport,Anta,Peru,ATA,-9.347439765930176,-77.59839630126953,919886
Arthur's Town Airport,Arthur's Town,Bahamas,ATC,24.6294,-75.673797,17307
Uru Harbour Airport,Atoifi,Solomon Islands,ATD,-8.87333,161.011002,26026
Eleftherios Venizelos International Airport,Athens,Greece,ATH,37.9364013672,23.9444999695,3227509
Atqasuk Edward Burnell Sr Memorial Airport,Atqasuk,United States,ATK,70.46730041503906,-157.43600463867188,1483
Hartsfield Jackson Atlanta International Airport,Atlanta,United States,ATL,33.6367,-84.428101,10477742
Altamira Airport,Altamira,Brazil,ATM,-3.2539100646973,-52.254001617432,187843
Sri Guru Ram Dass Jee International Airport,Amritsar,India,ATQ,31.7096004486,74.7973022461,11764958
Appleton International Airport,Appleton,United States,ATW,44.2580986023,-88.5190963745,405940
Watertown Regional Airport,Watertown,United States,ATY,44.91400146,-97.15470123,229346
Assiut International Airport,Asyut,Egypt,ATZ,27.0464992523,31.0119991302,5490763
Queen Beatrix International Airport,Oranjestad,Aruba,AUA,12.5014,-70.015198,1125020
Santiago Perez Airport,Arauca,Colombia,AUC,7.06888,-70.7369,336615
Augusta State Airport,Augusta,United States,AUG,44.3205986023,-69.7973022461,100491
Abu Dhabi International Airport,Abu Dhabi,United Arab Emirates,AUH,24.433000564575195,54.651100158691406,2316480
Alakanuk Airport,Alakanuk,United States,AUK,62.6800422668,-164.659927368,586
Hiva Oa-Atuona Airport,Hiva-oa,French Polynesia,AUQ,-9.76879024506,-139.011001587,2240
Aurillac Airport,Aurillac,France,AUR,44.89139938354492,2.4219400882720947,249058
Austin Bergstrom International Airport,Austin,United States,AUS,30.194499969482425,-97.6698989868164,3339617
Aurukun Airport,Aurukun,Australia,AUU,-13.354067,141.72065,2089
Araguaína Airport,Araguaina,Brazil,AUX,-7.22787,-48.240501,466161
Aneityum Airport,Anelghowhat,Vanuatu,AUY,-20.2492008209,169.770996094,1534
Anshun Huangguoshu Airport,Anshun,China,AVA,26.2605555556,105.873333333,2085261
Asheville Regional Airport,Asheville,United States,AVL,35.43619918823242,-82.54180145263672,731206
Avignon-Caumont Airport,Avignon,France,AVN,43.90729904174805,4.901830196380615,247074
Wilkes Barre Scranton International Airport,Scranton,United States,AVP,41.3385009766,-75.72339630130001,550734
Avalon Airport,Avalon,Australia,AVV,-38.039398,144.468994,202533
Aniwa Airport,Aniwa,Vanuatu,AWD,-19.2346,169.6009,2645
Ahwaz Airport,Ahwaz,Iran,AWZ,31.3374004364,48.7620010376,4172260
Clayton J Lloyd International Airport,The Valley,Anguilla,AXA,18.2048,-63.055099,26747
Dimokritos Airport,Alexandroupolis,Greece,AXD,40.855899810791016,25.956300735473636,418639
Ataq Airport,Ataq,Yemen,AXK,14.551300048828123,46.82619857788086,601863
El Eden Airport,Armenia,Colombia,AXM,4.45278,-75.7664,1156251
Spring Point Airport,Spring Point,Bahamas,AXP,22.441799163800003,-73.97090148930002,53131
Arutua Airport,Arutua,French Polynesia,AXR,-15.248299598693848,-146.61700439453125,860
Akita Airport,Akita,Japan,AXT,39.6156005859375,140.218994140625,1081751
Axum Airport,Axum,Ethiopia,AXU,14.14680004119873,38.77280044555664,3342660
Coronel FAP Alfredo Mendivil Duarte Airport,Ayacucho,Peru,AYP,-13.154800415039062,-74.20439910888672,1014046
Ayers Rock Connellan Airport,Uluru,Australia,AYQ,-25.1861,130.975998,3648
Antalya International Airport,Antalya,Turkey,AYT,36.898701,30.800501,3037813
Phoenix-Mesa-Gateway Airport,Mesa,United States,AZA,33.30780029,-111.6549988,1953552
Shahid Sadooghi Airport,Yazd,Iran,AZD,31.9048995972,54.2765007019,1472657
Bateen Airport,Abu Dhabi,United Arab Emirates,AZI,24.428300857543945,54.458099365234375,280763
Andizhan Airport,Andizhan,Uzbekistan,AZN,40.7276992798,72.2939987183,869688
Kalamazoo Battle Creek International Airport,Kalamazoo,United States,AZO,42.234901428222656,-85.5521011352539,354176
Touat Cheikh Sidi Mohamed Belkebir Airport,Adrar,Algeria,AZR,27.83760070800781,-0.1864140033721923,379822
Samaná El Catey International Airport,Samana,Dominican Republic,AZS,19.2670001984,-69.7419967651,777080
Bahrain International Airport,Bahrain,Bahrain,BAH,26.27079963684082,50.63359832763672,3199245
Batman Airport,Batman,Turkey,BAL,37.9290008545,41.1166000366,1594952
Ernesto Cortissoz International Airport,Barranquilla,Colombia,BAQ,10.8896,-74.7808,2969773
Baotou Airport,Baotou,China,BAV,40.560001373291016,109.99700164794922,3274702
Barnaul Airport,Barnaul,Russia,BAX,53.363800048828125,83.53849792480469,768650
Tautii Magheraus Airport,Baia Mare,Romania,BAY,47.65840148925781,23.46999931335449,747324
Barcelos Airport,Barcelos,Brazil,BAZ,-0.981292,-62.919601,20807
Balmaceda Airport,Balmaceda,Chile,BBA,-45.91609954833984,-71.68949890136719,145718
Biju Patnaik Airport,Bhubaneswar,India,BBI,20.2444000244,85.8178024292,23945548
Kasane Airport,Kasane,Botswana,BBK,-17.83289909362793,25.162399291992188,372852
Bario Airport,Bario,Malaysia,BBN,3.7338900566101074,115.47899627685548,221534
Berbera Airport,Berbera,Somalia,BBO,10.389200210571287,44.94110107421875,878857
Bacolod-Silay Airport,Bacolod,Philippines,BCD,10.7764,123.014999,1698476
Barcaldine Airport,Barcaldine,Australia,BCI,-23.5652999878,145.307006836,2143
Barcelona International Airport,Barcelona,Spain,BCN,41.2971,2.07846,5148390
L.F. Wade International International Airport,Bermuda,Bermuda,BDA,32.36399841308594,-64.67870330810547,66846
Bundaberg Airport,Bundaberg,Australia,BDB,-24.9039001465,152.319000244,59275
Bandar Lengeh Airport,Bandar Lengeh,Iran,BDH,26.531999588,54.824798584,217791
Syamsudin Noor Airport,Banjarmasin,Indonesia,BDJ,-3.4423599243164062,114.76300048828124,2801905
Bradley International Airport,Windsor Locks,United States,BDL,41.9388999939,-72.68319702149999,1894429
Husein Sastranegara International Airport,Bandung,Indonesia,BDO,-6.900629997253418,107.57599639892578,13046279
Bhadrapur Airport,Chandragarhi,Nepal,BDP,26.5708007812,88.07959747310001,10591326
Vadodara Airport,Baroda,India,BDQ,22.336201,73.226303,9845243
Brindisi – Salento Airport,Brindisi,Italy,BDS,40.6576,17.947001,981338
Bardufoss Airport,Bardufoss,Norway,BDU,69.055801391602,18.540399551392,9790
Benbecula Airport,Benbecula,United Kingdom,BEB,57.48109817504883,-7.362780094146728,50714
Belgrade Nikola Tesla Airport,Belgrade,Serbia,BEG,44.8184013367,20.3090991974,4943008
Kalimarau Airport,Tanjung Redep-Borneo Island,Indonesia,BEJ,2.1555,117.431999,481256
Val de Cans/Júlio Cezar Ribeiro International Airport,Belem,Brazil,BEL,-1.3792500495900002,-48.4762992859,5213594
Benina International Airport,Benghazi,Libya,BEN,32.096801757799994,20.2695007324,1099037
Brest Bretagne Airport,Brest,France,BES,48.447898864746094,-4.418540000915527,451587
Bethel Airport,Bethel,United States,BET,60.77980042,-161.8379974,5577
Bedourie Airport,Bedourie,Australia,BEU,-24.346099853515625,139.4600067138672,288
Beira Airport,Beira,Mozambique,BEW,-19.79640007019043,34.90760040283203,2360701
Beirut Rafic Hariri International Airport,Beirut,Lebanon,BEY,33.820899963378906,35.488399505615234,11877565
Bradford Regional Airport,Bradford,United States,BFD,41.8031005859375,-78.64009857177734,270108
Western Neb. Rgnl/William B. Heilig Airport,Scottsbluff,United States,BFF,41.87400055,-103.5960007,59886
Boeing Field King County International Airport,Seattle,United States,BFI,47.52999877929688,-122.302001953125,966590
Bijie Feixiong Airport,Bijie,China,BFJ,27.267066,105.472097,3756216
Meadows Field,Bakersfield,United States,BFL,35.43360138,-119.0569992,543938
Bram Fischer International Airport,Bloemfontein,South Africa,BFN,-29.0926990509,26.302400589,2251139
Belfast International Airport,Belfast,United Kingdom,BFS,54.6575012207,-6.21582984924,830631
Buri Ram Airport,Buri Ram,Thailand,BFV,15.229499816894531,103.25299835205078,1311214
Palonegro Airport,Bucaramanga,Colombia,BGA,7.1265,-73.1848,917180
Bangui M'Poko International Airport,Bangui,Central African Republic,BGF,4.39847993850708,18.518800735473636,2700642
Bingöl Çeltiksuyu Airport,Bingol,Turkey,BGG,38.8592605591,40.5959625244,875460
Sir Grantley Adams International Airport,Bridgetown,Barbados,BGI,13.0746002197,-59.4925003052,196557
Greater Binghamton/Edwin A Link field,Binghamton,United States,BGM,42.20869827,-75.97979736,311810
Bergen Airport Flesland,Bergen,Norway,BGO,60.29339981,5.218140125,532094
Bangor International Airport,Bangor,United States,BGR,44.80739974975586,-68.8281021118164,204095
Baghdad International Airport,Baghdad,Iraq,BGW,33.262500762900004,44.2346000671,11704507
Il Caravaggio International Airport,Bergamo,Italy,BGY,45.673901,9.70417,4487515
Hancock County-Bar Harbor Airport,Bar Harbor,United States,BHB,44.45000076,-68.3615036,85344
George Best Belfast City Airport,Belfast,United Kingdom,BHD,54.61809921264648,-5.872499942779541,725582
Woodbourne Airport,Woodbourne,New Zealand,BHE,-41.5182991027832,173.8699951171875,79874
Bisha Airport,Bisha,Saudi Arabia,BHH,19.984399795532227,42.62089920043945,729448
Comandante Espora Airport,Bahia Blanca,Argentina,BHI,-38.725,-62.1693,689411
Bhuj Airport,Bhuj,India,BHJ,23.2877998352,69.6701965332,3663186
Bukhara Airport,Bukhara,Uzbekistan,BHK,39.775001525878906,64.4832992553711,3158623
Birmingham-Shuttlesworth International Airport,Birmingham,United States,BHM,33.56290054,-86.75350189,1189722
Raja Bhoj International Airport,Bhopal,India,BHO,23.2875003815,77.3374023438,16938440
Broken Hill Airport,Broken Hill,Australia,BHQ,-32.0013999939,141.472000122,52414
Bharatpur Airport,Bharatpur,Nepal,BHR,27.678101,84.429398,6475286
Bhavnagar Airport,Bhaunagar,India,BHU,21.752199173,72.1852035522,5774876
Bahawalpur Airport,Bahawalpur,Pakistan,BHV,29.348100662231445,71.71800231933594,11426435
Birmingham International Airport,Birmingham,United Kingdom,BHX,52.4538993835,-1.74802994728,4865362
Beihai Airport,Beihai,China,BHY,21.5394,109.293999,8239178
Bastia-Poretta Airport,Bastia,France,BIA,42.55270004272461,9.48373031616211,501052
Frans Kaisiepo Airport,Biak,Indonesia,BIK,-1.190019965171814,136.10800170898438,223917
Billings Logan International Airport,Billings,United States,BIL,45.80770111083984,-108.54299926757812,237228
South Bimini Airport,Alice Town,Bahamas,BIM,25.6998996735,-79.2647018433,61193
Bilbao Airport,Bilbao,Spain,BIO,43.30110168457031,-2.9106099605560303,1937302
Biarritz-Anglet-Bayonne Airport,Biarritz-bayonne,France,BIQ,43.4683333,-1.5311111,1030101
Biratnagar Airport,Biratnagar,Nepal,BIR,26.48150062561035,87.26399993896484,13103795
Bismarck Municipal Airport,Bismarck,United States,BIS,46.77270126342773,-100.74600219726562,107817
Soummam Airport,Bejaja,Algeria,BJA,36.7120018005,5.0699200630200005,1904426
Bojnord Airport,Bojnourd,Iran,BJB,37.49300003051758,57.30820083618164,1094618
Båtsfjord Airport,Batsfjord,Norway,BJF,70.60050201416,29.691400527954,64938
Bemidji Regional Airport,Bemidji,United States,BJI,47.50939941,-94.93370056,85918
Banjul International Airport,Banjul,Gambia,BJL,13.338000297546388,-16.65220069885254,3884884
Bujumbura International Airport,Bujumbura,Burundi,BJM,-3.3240199089050293,29.318500518798828,4663720
Bahir Dar Airport,Bahar Dar,Ethiopia,BJR,11.608099937438965,37.32160186767578,3991388
Milas Bodrum International Airport,Bodrum,Turkey,BJV,37.25059890749999,27.6643009186,910071
Del Bajío International Airport,Del Bajio,Mexico,BJX,20.9935,-101.481003,4158214
Badajoz Airport,Badajoz,Spain,BJZ,38.891300201416016,-6.8213300704956055,359080
Buckland Airport,Buckland,United States,BKC,65.9815979004,-161.149002075,694
Branson Airport,Branson,United States,BKG,36.532082,-93.200544,339085
Kota Kinabalu International Airport,Kota Kinabalu,Malaysia,BKI,5.9372100830078125,116.0510025024414,2200464
Suvarnabhumi Airport,Bangkok,Thailand,BKK,13.681099891662598,100.74700164794922,22892227
Bakalalan Airport,Bakalalan,Malaysia,BKM,3.973999977111816,115.61799621582033,206089
Modibo Keita International Airport,Bamako,Mali,BKO,12.5335,-7.94994,12705372
Blackall Airport,Blackall,Australia,BKQ,-24.427799224900003,145.429000854,1925
Fatmawati Soekarno Airport,Bengkulu,Indonesia,BKS,-3.8637,102.338997,3134278
Raleigh County Memorial Airport,Beckley,United States,BKW,37.7873001099,-81.1241989136,142337
Bukavu Kavumu Airport,Bukavu/kavumu,Congo (Kinshasa),BKY,-2.3089799880981445,28.808799743652344,6535758
Bukoba Airport,Bukoba,Tanzania,BKZ,-1.332,31.8212,3161453
General José Antonio Anzoategui International Airport,Barcelona,Venezuela,BLA,10.111111,-64.692222,918733
Borlange Airport,Borlange,Sweden,BLE,60.422000885009766,15.515199661254885,136922
Bellingham International Airport,Bellingham,United States,BLI,48.79280090332031,-122.53800201416016,336756
Batna Airport,Batna,Algeria,BLJ,35.7521018982,6.308589935300001,1603989
Blackpool International Airport,Blackpool,United Kingdom,BLK,53.77170181274414,-3.0286099910736084,523255
Billund Airport,Billund,Denmark,BLL,55.7402992249,9.15178012848,1624445
Bologna Guglielmo Marconi Airport,Bologna,Italy,BLQ,44.5354,11.2887,2928530
Kempegowda International Airport,Bangalore,India,BLR,13.1979,77.706299,51849778
Scott AFB/Midamerica Airport,Belleville,United States,BLV,38.5452,-89.835197,178852
Chileka International Airport,Blantyre,Malawi,BLZ,-15.679100036621094,34.9739990234375,5736996
Stockholm-Bromma Airport,Stockholm,Sweden,BMA,59.354400634765625,17.941699981689453,506690
Broome International Airport,Broome,Australia,BME,-17.944700241088867,122.23200225830078,15949
Central Illinois Regional Airport at Bloomington-Normal,Bloomington,United States,BMI,40.47710037,-88.91590118,637803
Muhammad Salahuddin Airport,Bima,Indonesia,BMU,-8.5396499633789,118.68699645996,642098
Buon Ma Thuot Airport,Buonmethuot,Vietnam,BMV,12.668299675,108.120002747,2324816
Bordj Badji Mokhtar Airport,Bordj Badji Mokhtar,Algeria,BMW,21.375,0.923888981342,59518
Île Art - Waala Airport,Waala,New Caledonia,BMY,-19.720600128173828,163.66099548339844,5515
Nashville International Airport,Nashville,United States,BNA,36.1245002746582,-86.6781997680664,3194821
Boende Airport,Boende,Congo (Kinshasa),BNB,-0.2169999927282333,20.850000381469727,1741901
Beni Airport,Beni,Congo (Kinshasa),BNC,0.575,29.4739,7211036
Bandar Abbas International Airport,Bandar Abbas,Iran,BND,27.218299865722656,56.37779998779297,1558061
Brisbane International Airport,Brisbane,Australia,BNE,-27.38419914245605,153.11700439453125,2460049
Benin Airport,Benin,Nigeria,BNI,6.316979885101318,5.599500179290772,7933694
Ballina Byron Gateway Airport,Ballina Byron Bay,Australia,BNK,-28.8339004517,153.56199646,109183
Brønnøysund Airport,Bronnoysund,Norway,BNN,65.461097717285,12.217499732971,32444
Barinas Airport,Barinas,Venezuela,BNS,8.615,-70.21416667,498004
Banja Luka International Airport,Banja Luka,Bosnia and Herzegovina,BNX,44.94139862060547,17.297500610351562,400822
Bora Bora Airport,Bora Bora,French Polynesia,BOB,-16.444400787353516,-151.75100708007812,24821
Bocas Del Toro International Airport,Bocas Del Toro,Panama,BOC,9.340849876403809,-82.25080108642578,328824
Bordeaux-Mérignac Airport,Bordeaux,France,BOD,44.8283004761,-0.715556025505,2735865
El Dorado International Airport,Bogota,Colombia,BOG,4.70159,-74.1469,13817795
Bournemouth Airport,Bournemouth,United Kingdom,BOH,50.77999877929688,-1.8424999713897705,685928
Boise Air Terminal/Gowen Field,Boise,United States,BOI,43.5644,-116.223,912991
Burgas Airport,Bourgas,Bulgaria,BOJ,42.56959915161133,27.515199661254883,2774840
Chhatrapati Shivaji International Airport,Mumbai,India,BOM,19.0886993408,72.8678970337,54456747
Flamingo International Airport,Kralendijk,Netherlands Antilles,BON,12.130999565124512,-68.26850128173828,849954
Bodø Airport,Bodo,Norway,BOO,67.26920318603516,14.365300178527832,71988
General Edward Lawrence Logan International Airport,Boston,United States,BOS,42.36429977,-71.00520325,4527020
Bobo Dioulasso Airport,Bobo-dioulasso,Burkina Faso,BOY,11.160099983215332,-4.33096981048584,8726245
Alashankou Bole (Bortala) airport,Bole,China,BPL,44.895,82.3,1360637
Sultan Aji Muhamad Sulaiman Airport,Balikpapan,Indonesia,BPN,-1.26827001572,116.893997192,3900378
Porto Seguro Airport,Porto Seguro,Brazil,BPS,-16.438601,-39.080898,984457
Southeast Texas Regional Airport,Beaumont,United States,BPT,29.9507999420166,-94.02069854736328,160061
Qamdo Bangda Airport,Bangda,China,BPX,30.553600311279297,97.1082992553711,583165
Busselton Regional Airport,Brusselton,Australia,BQB,-33.6884231567,115.401596069,93893
Brunswick Golden Isles Airport,Brunswick,United States,BQK,31.2588005065918,-81.46649932861328,131528
Boulia Airport,Boulia,Australia,BQL,-22.913299560546875,139.89999389648438,335
Rafael Hernandez Airport,Aguadilla,Puerto Rico,BQN,18.49489974975586,-67.12940216064453,178684
Ignatyevo Airport,Blagoveschensk,Russia,BQS,50.42539978027344,127.41200256347656,1089848
Barreiras Airport,Barreiras,Brazil,BRA,-12.078900337219238,-45.00899887084961,828482
San Carlos De Bariloche Airport,San Carlos De Bariloche,Argentina,BRC,-41.151199,-71.157501,357314
Brainerd Lakes Regional Airport,Brainerd,United States,BRD,46.39830017,-94.13809967,263141
Bremen Airport,Bremen,Germany,BRE,53.0475006104,8.78666973114,2576350
Bari Karol Wojtyła Airport,Bari,Italy,BRI,41.138901,16.760599,2546333
Southeast Iowa Regional Airport,Burlington,United States,BRL,40.783199310302734,-91.12550354003906,214543
Barquisimeto International Airport,Barquisimeto,Venezuela,BRM,10.042746543884276,-69.3586196899414,1101883
Bern Belp Airport,Bern,Switzerland,BRN,46.914100647,7.497149944309999,792371
Brownsville South Padre Island International Airport,Brownsville,United States,BRO,25.90679931640625,-97.4259033203125,235451
Brno-Tuřany Airport,Brno,Czech Republic,BRQ,49.15129852294922,16.694400787353516,437737
Barra Airport,Barra,United Kingdom,BRR,57.0228,-7.44306,49851
Bristol Airport,Bristol,United Kingdom,BRS,51.382702,-2.71909,3204335
Brussels Airport,Brussels,Belgium,BRU,50.9014015198,4.48443984985,7692796
Wiley Post Will Rogers Memorial Airport,Barrow,United States,BRW,71.285402,-156.766008,3764
Bosaso Airport,Bosaso,Somalia,BSA,11.27530002593994,49.14939880371094,830922
Presidente Juscelino Kubistschek International Airport,Brasilia,Brazil,BSB,-15.86916732788086,-47.92083358764648,6708497
José Celestino Mutis Airport,Bahia Solano,Colombia,BSC,6.20292,-77.3947,500397
Baoshan Yunduan Airport,Baoshan,China,BSD,25.053301,99.168297,1239018
Bata Airport,Bata,Equatorial Guinea,BSG,1.9054700136184688,9.80568027496338,586098
Biskra Airport,Biskra,Algeria,BSK,34.7933006287,5.73823022842,1045995
EuroAirport Basel-Mulhouse-Freiburg Airport,Mulhouse,France,BSL,47.59,7.5291667,3134358
Basco Airport,Basco,Philippines,BSO,20.4513,121.980003,175077
Basrah International Airport,Basrah,Iraq,BSR,30.54910087585449,47.66210174560547,2076875
Batticaloa Airport,Batticaloa,Sri Lanka,BTC,7.70576,81.678802,1228667
Hang Nadim International Airport,Batam,Indonesia,BTH,1.12102997303,104.119003296,1875100
Barter Island LRRS Airport,Barter Island,United States,BTI,70.1340026855,-143.582000732,871
Sultan Iskandar Muda International Airport,Banda Aceh,Indonesia,BTJ,5.522872024010001,95.42063713070002,3522772
Bratsk Airport,Bratsk,Russia,BTK,56.370601654052734,101.697998046875,560616
Bert Mooney Airport,Butte,United States,BTM,45.95479965209961,-112.49700164794922,61147
Baton Rouge Metropolitan Airport,Baton Rouge,United States,BTR,30.533199,-91.149597,458491
M. R. Štefánik Airport,Bratislava,Slovakia,BTS,48.17020034790039,17.21269989013672,1442677
Bettles Airport,Bettles,United States,BTT,66.91390228,-151.529007,306
Bintulu Airport,Bintulu,Malaysia,BTU,3.12385010719,113.019996643,231867
Burlington International Airport,Burlington,United States,BTV,44.4719009399,-73.15329742429999,683749
Buka Airport,Buka Island,Papua New Guinea,BUA,-5.422319889068604,154.67300415039062,184817
Burketown Airport,Burketown,Australia,BUC,-17.748600006103516,139.53399658203125,1301
Budapest Liszt Ferenc International Airport,Budapest,Hungary,BUD,47.42976,19.261093,6264946
Buffalo Niagara International Airport,Buffalo,United States,BUF,42.94049835,-78.73220062,1304492
Bulolo Airport,Bulolo,Papua New Guinea,BUL,-7.216286671410001,146.649541855,113386
Gerardo Tobar López Airport,Buenaventura,Colombia,BUN,3.81963,-76.9898,553335
Joshua Mqabuko Nkomo International Airport,Bulawayo,Zimbabwe,BUQ,-20.017401,28.617901,2359140
Bob Hope Airport,Burbank,United States,BUR,34.20069885253906,-118.35900115966795,1131842
Batumi International Airport,Batumi,Georgia,BUS,41.6102981567,41.5997009277,661386
Betoambari Airport,Bau-Bau,Indonesia,BUW,-5.486879825592041,122.56900024414062,982772
Bunia Airport,Bunia,Congo (Kinshasa),BUX,1.5657199621200562,30.220800399780277,6427119
Bushehr Airport,Bushehr,Iran,BUZ,28.9447994232,50.8345985413,615076
Paris Beauvais Tillé Airport,Beauvais,France,BVA,49.45439910888672,2.1127800941467285,2228711
Atlas Brasil Cantanhede Airport,Boa Vista,Brazil,BVB,2.84138894081,-60.6922225952,352032
Rabil Airport,Boa Vista,Cape Verde,BVC,16.136499404907227,-22.888900756835938,73171
Brive Souillac Airport,Brive,France,BVE,45.039722,1.485556,451131
Berlevåg Airport,Berlevag,Norway,BVG,70.871399,29.034201,29185
Brigadeiro Camarão Airport,Vilhena,Brazil,BVH,-12.694399833679,-60.098300933838,262708
Birdsville Airport,Birdsville,Australia,BVI,-25.897499084472656,139.34800720214844,329
Gautam Buddha Airport,Bhairawa,Nepal,BWA,27.505685,83.416293,10113874
Baltimore/Washington International Thurgood Marshall Airport,Baltimore,United States,BWI,39.1754,-76.668297,3322107
Bol Airport,Brac,Croatia,BWK,43.28570175170898,16.67970085144043,143815
Brunei International Airport,Bandar Seri Begawan,Brunei,BWN,4.944200038909912,114.9280014038086,488583
Wynyard Airport,Burnie,Australia,BWT,-40.9989013671875,145.7310028076172,105031
Babo Airport,Babo,Indonesia,BXB,-2.5322399139404297,133.43899536132812,157709
Bam Airport,Bam,Iran,BXR,29.084199905395508,58.45000076293945,762374
Bancasi Airport,Butuan,Philippines,BXU,8.9515,125.4788,1250860
Yacuiba Airport,Yacuiba,Bolivia,BYC,-21.960899353027344,-63.65169906616211,362646
Bayankhongor Airport,Bayankhongor,Mongolia,BYN,46.16329956054688,100.7040023803711,181503
Bonito Airport,Bointo,Brazil,BYO,-21.247299,-56.452499,578915
Philip S. W. Goldson International Airport,Belize City,Belize,BZE,17.539100646972656,-88.30819702148438,1305745
Bydgoszcz Ignacy Jan Paderewski Airport,Bydgoszcz,Poland,BZG,53.0968017578,17.9776992798,765053
Barisal Airport,Barisal,Bangladesh,BZL,22.801000595092773,90.30120086669922,5700382
Gallatin Field,Bozeman,United States,BZN,45.77750015,-111.1529999,166037
Bolzano Airport,Bolzano,Italy,BZO,46.460201,11.3264,237761
Béziers-Vias Airport,Beziers,France,BZR,43.32350158691406,3.353899955749512,540570
Maya-Maya Airport,Brazzaville,Congo (Brazzaville),BZV,-4.251699924468994,15.253000259399414,3957158
Cabinda Airport,Cabinda,Angola,CAB,-5.59699010848999,12.188400268554688,999578
Cascavel Airport,Cascavel,Brazil,CAC,-25.0002994537,-53.5008010864,956523
Columbia Metropolitan Airport,Columbia,United States,CAE,33.93880081176758,-81.11949920654297,563137
Cagliari Elmas Airport,Cagliari,Italy,CAG,39.251499,9.05428,557435
Cà Mau Airport,Ca Mau,Vietnam,CAH,9.177667,105.177778,633585
Cairo International Airport,Cairo,Egypt,CAI,30.12190055847168,31.40559959411621,61467660
Canaima Airport,Canaima,Venezuela,CAJ,6.231988906860352,-62.85443115234375,181467
Akron Canton Regional Airport,Akron,United States,CAK,40.91609954833984,-81.44219970703125,605904
Campbeltown Airport,Campbeltown,United Kingdom,CAL,55.437198638916016,-5.686389923095703,139652
Guangzhou Baiyun International Airport,Guangzhou,China,CAN,23.39240074157715,113.29900360107422,39995020
Cap Haitien International Airport,Cap Haitien,Haiti,CAP,19.733,-72.194702,2011278
Bartolomeu Lisandro Airport,Campos,Brazil,CAW,-21.698299408,-41.301700592,917831
Cayenne-Rochambeau Airport,Cayenne,French Guiana,CAY,4.819809913639999,-52.3604011536,287709
Jorge Wilsterman International Airport,Cochabamba,Bolivia,CBB,-17.421100616455078,-66.1771011352539,1550738
Béchar Boudghene Ben Ali Lotfi Airport,Béchar,Algeria,CBH,31.645700454711918,-2.269860029220581,437260
Awang Airport,Cotabato,Philippines,CBO,7.165239810943604,124.20999908447266,1214602
Margaret Ekpo International Airport,Calabar,Nigeria,CBQ,4.976019859313965,8.347200393676758,5865548
Canberra International Airport,Canberra,Australia,CBR,-35.30690002441406,149.19500732421875,239442
Catumbela Airport,Catumbela,Angola,CBT,-12.4792,13.4869,3070913
Jardines Del Rey Airport,Cunagua,Cuba,CCC,22.4610004425,-78.32839965820001,980904
Carcassonne Airport,Carcassonne,France,CCF,43.21599960327149,2.3063199520111084,638591
Calicut International Airport,Calicut,India,CCJ,11.1367998123,75.95529937740001,16162249
Cocos (Keeling) Islands Airport,Cocos Keeling Island,Cocos (Keeling) Islands,CCK,-12.1883001328,96.8339004517,553
Diomício Freitas Airport,Criciuma,Brazil,CCM,-28.7244434357,-49.4213905334,507421
Carriel Sur Airport,Concepcion,Chile,CCP,-36.772701,-73.063103,2883904
Simón Bolívar International Airport,Caracas,Venezuela,CCS,10.601194,-66.991222,8736449
Netaji Subhash Chandra Bose International Airport,Kolkata,India,CCU,22.654699325561523,88.44670104980469,95182493
Craig Cove Airport,Craig Cove,Vanuatu,CCV,-16.264999,167.923996,16772
Cold Bay Airport,Cold Bay,United States,CDB,55.20610046386719,-162.72500610351562,1497
Cedar City Regional Airport,Cedar City,United States,CDC,37.70100021362305,-113.0989990234375,21575
Charles de Gaulle International Airport,Paris,France,CDG,49.012798,2.55,10839045
Conceição do Araguaia Airport,Conceicao Do Araguaia,Brazil,CDJ,-8.348349571228027,-49.30149841308594,262202
Chadron Municipal Airport,Chadron,United States,CDR,42.837600708,-103.095001221,78384
Merle K (Mudhole) Smith Airport,Cordova,United States,CDV,60.4917984,-145.4779968,1047
Mactan Cebu International Airport,Cebu,Philippines,CEB,10.307499885559,123.97899627686,11908848
Jack Mc Namara Field Airport,Crescent City,United States,CEC,41.78020096,-124.2369995,146181
Ceduna Airport,Ceduna,Australia,CED,-32.13059997558594,133.7100067138672,7093
Cherepovets Airport,Cherepovets,Russia,CEE,59.273601532,38.0158004761,1927984
Hawarden Airport,Hawarden,United Kingdom,CEG,53.1781005859375,-2.977780103683472,275257
Chiang Rai International Airport,Chiang Rai,Thailand,CEI,19.952299118,99.8828964233,795431
Chelyabinsk Balandino Airport,Chelyabinsk,Russia,CEK,55.305801,61.5033,1448991
Central Airport,Central,United States,CEM,65.57379913,-144.7830048,6568
Ciudad Obregón International Airport,Ciudad Obregon,Mexico,CEN,27.39259910583496,-109.83300018310548,709977
Cortez Municipal Airport,Cortez,United States,CEZ,37.3030014038,-108.627998352,57774
Cabo Frio Airport,Cabo Frio,Brazil,CFB,-22.921699523900003,-42.0742988586,1125268
Caçador Airport,Cacador,Brazil,CFC,-26.78840065,-50.9398002625,608147
Clermont-Ferrand Auvergne Airport,Clermont-Ferrand,France,CFE,45.7867012024,3.1691699028,467076
Ech Cheliff Airport,Ech-cheliff,Algeria,CFK,36.2126998901,1.33176994324,718857
Donegal Airport,Dongloe,Ireland,CFN,55.0442008972168,-8.340999603271484,110985
Caen-Carpiquet Airport,Caen,France,CFR,49.173301696777344,-0.449999988079071,443694
Coffs Harbour Airport,Coff's Harbour,Australia,CFS,-30.3206005096,153.115997314,49467
Ioannis Kapodistrias International Airport,Kerkyra/corfu,Greece,CFU,39.601898193359375,19.911699295043945,1176213
Marechal Rondon Airport,Cuiaba,Brazil,CGB,-15.6528997421,-56.1166992188,1802273
Changde Airport,Changde,China,CGD,28.9188995361,111.63999939,7331912
Congonhas Airport,Sao Paulo,Brazil,CGH,-23.626110076904297,-46.65638732910156,6058543
Cape Girardeau Regional Airport,Cape Girardeau,United States,CGI,37.22529983520508,-89.57080078125,245238
Soekarno-Hatta International Airport,Jakarta,Indonesia,CGK,-6.1255698204,106.65599823,70493413
Camiguin Airport,Camiguin,Philippines,CGM,9.253520011901855,124.70700073242188,1115054
Cologne Bonn Airport,Cologne,Germany,CGN,50.8658981323,7.1427397728,5098721
Zhengzhou Xinzheng International Airport,Zhengzhou,China,CGO,34.519699096699995,113.841003418,60518384
Shah Amanat International Airport,Chittagong,Bangladesh,CGP,22.24959945678711,91.81330108642578,7535265
Longjia Airport,Changchun,China,CGQ,43.9962005615,125.684997559,12123626
Campo Grande Airport,Campo Grande,Brazil,CGR,-20.4687004089,-54.6725006104,1488043
Laguindingan Airport,Cagayan de Oro City,Philippines,CGY,8.612203,124.456496,3641360
Lovell Field,Chattanooga,United States,CHA,35.035301208496094,-85.20379638671875,864972
Christchurch International Airport,Christchurch,New Zealand,CHC,-43.48939895629883,172.53199768066406,443623
Chaoyang Airport,Chaoyang,China,CHG,41.538101,120.434998,2643627
Charlottesville Albemarle Airport,Charlottesville VA,United States,CHO,38.13859939575195,-78.4529037475586,381874
Chania International Airport,Chania,Greece,CHQ,35.531700134277344,24.14970016479492,139117
Charleston Air Force Base-International Airport,Charleston,United States,CHS,32.89860153,-80.04049683,554985
Cap Manuel Niño International Airport,Changuinola,Panama,CHX,9.458962,-82.515062,226800
Choiseul Bay Airport,Choiseul Bay,Solomon Islands,CHY,-6.711944,156.396111,107317
Ciampino–G. B. Pastine International Airport,Rome,Italy,CIA,41.7994,12.5949,2110291
Chico Municipal Airport,Chico,United States,CIC,39.79539871,-121.8580017,221684
The Eastern Iowa Airport,Cedar Rapids,United States,CID,41.88470077514648,-91.71080017089844,605230
Chifeng Airport,Chifeng,China,CIF,42.23500061035156,118.90799713134766,5482388
Changzhi Airport,Changzhi,China,CIH,36.247501,113.125999,12719212
Capitán Aníbal Arab Airport,Cobija,Bolivia,CIJ,-11.040399551400002,-68.7829971313,470429
Chalkyitsik Airport,Chalkyitsik,United States,CIK,66.6449966431,-143.740005493,491
Chipata Airport,Chipata,Zambia,CIP,-13.558300018310549,32.58720016479492,2288893
Shymkent Airport,Chimkent,Kazakhstan,CIT,42.364200592041016,69.47889709472656,2398948
Chippewa County International Airport,Sault Ste Marie,United States,CIU,46.25080108642578,-84.47239685058594,58207
Capitan FAP Jose A Quinones Gonzales International Airport,Chiclayo,Peru,CIX,-6.787479877471924,-79.8281021118164,1608162
Comiso Airport,Comiso,Italy,CIY,36.994601,14.607182,363720
Coari Airport,Coari,Brazil,CIZ,-4.134059906005859,-63.132598876953125,108880
Mayor General FAP Armando Revoredo Iglesias Airport,Cajamarca,Peru,CJA,-7.1391801834106445,-78.4894027709961,1901642
Coimbatore International Airport,Coimbatore,India,CJB,11.029999733,77.0434036255,14642202
El Loa Airport,Calama,Chile,CJC,-22.498199462890625,-68.90360260009766,367328
Cheongju International Airport/Cheongju Air Base (K-59/G-513),Chongju,South Korea,CJJ,36.717008,127.498741,1956618
Chitral Airport,Chitral,Pakistan,CJL,35.886600494384766,71.80059814453125,3116798
Chumphon Airport,Chumphon,Thailand,CJM,10.711199760437012,99.36170196533205,209205
Abraham González International Airport,Ciudad Juarez,Mexico,CJS,31.63610076904297,-106.4290008544922,860122
Jeju International Airport,Cheju,South Korea,CJU,33.51129913330078,126.49299621582033,1281689
North Central West Virginia Airport,Clarksburg,United States,CKB,39.2966003418,-80.2281036377,279132
Chongqing Jiangbei International Airport,Chongqing,China,CKG,29.719200134277344,106.64199829101562,31106404
Chokurdakh Airport,Chokurdah,Russia,CKH,70.62310028076172,147.90199279785156,6734
Carajás Airport,Parauapebas,Brazil,CKS,-6.11527776718,-50.0013885498,666252
Conakry International Airport,Conakry,Guinea,CKY,9.57689,-13.612,4802508
Çanakkale Airport,Canakkale,Turkey,CKZ,40.1376991272,26.4267997742,364436
Mc Clellan-Palomar Airport,Carlsbad,United States,CLD,33.12829971,-117.2799988,269869
Cleveland Hopkins International Airport,Cleveland,United States,CLE,41.4117012024,-81.8498001099,3835255
Cluj-Napoca International Airport,Cluj-napoca,Romania,CLJ,46.78519821166992,23.686199188232425,2719194
Easterwood Field,College Station,United States,CLL,30.58860016,-96.36380005,308659
William R Fairchild International Airport,Port Angeles,United States,CLM,48.12020111083984,-123.5,423429
Alfonso Bonilla Aragon International Airport,Cali,Colombia,CLO,3.54322,-76.3816,5119866
Licenciado Miguel de la Madrid Airport,Colima,Mexico,CLQ,19.277,-103.577002,660341
Charlotte Douglas International Airport,Charlotte,United States,CLT,35.2140007019043,-80.94309997558594,8111569
Nelson Ribeiro Guimarães Airport,Caldas Novas,Brazil,CLV,-17.725299835205,-48.607498168945,528800
Calvi-Sainte-Catherine Airport,Calvi,France,CLY,42.5244444,8.7930556,192817
Cunnamulla Airport,Cunnamulla,Australia,CMA,-28.030000686645508,145.6219940185547,9142
Bandaranaike International Colombo Airport,Colombo,Sri Lanka,CMB,7.180759906768799,79.88410186767578,12691481
Ciudad del Carmen International Airport,Ciudad Del Carmen,Mexico,CME,18.65369987487793,-91.79900360107422,1017432
Corumbá International Airport,Corumba,Brazil,CMG,-19.0119438171,-57.6713905334,227252
John Glenn Columbus International Airport,Columbus,United States,CMH,39.998001,-82.891899,1871249
University of Illinois Willard Airport,Champaign,United States,CMI,40.03919983,-88.27809906,264591
Mohammed V International Airport,Casablanca,Morocco,CMN,33.36750030517578,-7.589970111846924,15232300
Chimbu Airport,Kundiawa,Papua New Guinea,CMU,-6.024290084838867,144.9709930419922,256144
Ignacio Agramonte International Airport,Camaguey,Cuba,CMW,21.420299530029297,-77.84750366210938,1005666
Houghton County Memorial Airport,Hancock,United States,CMX,47.168399810791016,-88.48909759521484,41521
Mihail Kogălniceanu International Airport,Constanta,Romania,CND,44.36220169067383,28.488300323486328,930289
Tancredo Neves International Airport,Belo Horizonte,Brazil,CNF,-19.62444305419922,-43.97194290161133,6549762
Cloncurry Airport,Cloncurry,Australia,CNJ,-20.6686000824,140.503997803,5416
Cavern City Air Terminal,Carlsbad,United States,CNM,32.337501525878906,-104.26300048828124,290385
Neerlerit Inaat Airport,Neerlerit Inaat,Greenland,CNP,70.7431030273,-22.6504993439,261
Cairns International Airport,Cairns,Australia,CNS,-16.885799408,145.755004883,238440
Chiang Mai International Airport,Chiang Mai,Thailand,CNX,18.7667999268,98.962600708,4744513
Canyonlands Field,Moab,United States,CNY,38.75500107,-109.7549973,56312
Yellowstone Regional Airport,Cody,United States,COD,44.520198822,-109.024002075,51257
Cochin International Airport,Kochi,India,COK,10.152,76.401901,24332246
Cadjehoun Airport,Cotonou,Benin,COO,6.357230186462402,2.384350061416626,10556879
Choibalsan Airport,Choibalsan,Mongolia,COQ,48.13570022583008,114.64600372314452,87677
Ingeniero Ambrosio Taravella Airport,Cordoba,Argentina,COR,-31.323601,-64.208,3300662
City of Colorado Springs Municipal Airport,Colorado Springs,United States,COS,38.805801,-104.700996,275108
Columbia Regional Airport,Columbia,United States,COU,38.81809997558594,-92.21959686279295,245002
Aviador C. Campos Airport,San Martin Des Andes,Argentina,CPC,-40.075401,-71.137299,330431
Coober Pedy Airport,Coober Pedy,Australia,CPD,-29.040000915527344,134.7209930419922,4582
Ingeniero Alberto Acuña Ongay International Airport,Campeche,Mexico,CPE,19.816799163800003,-90.5002975464,711059
Copenhagen Kastrup Airport,Copenhagen,Denmark,CPH,55.617900848389,12.656000137329,3915322
Desierto de Atacama Airport,Copiapo,Chile,CPO,-27.2611999512,-70.7791976929,295213
Casper-Natrona County International Airport,Casper,United States,CPR,42.908001,-106.463997,63978
Cape Town International Airport,Cape Town,South Africa,CPT,-33.9648017883,18.6016998291,6489439
Presidente João Suassuna Airport,Campina Grande,Brazil,CPV,-7.26992,-35.8964,1927061
Benjamin Rivera Noriega Airport,Culebra Island,Puerto Rico,CPX,18.313289,-65.304324,84919
Craiova Airport,Craiova,Romania,CRA,44.31809997558594,23.888599395751957,973101
General E. Mosconi Airport,Comodoro Rivadavia,Argentina,CRD,-45.7853,-67.4655,368843
Colonel Hill Airport,Colonel Hill,Bahamas,CRI,22.7455997467,-74.1824035645,39034
Diosdado Macapagal International Airport,Angeles City,Philippines,CRK,15.186,120.559998,5332773
Brussels South Charleroi Airport,Charleroi,Belgium,CRL,50.459202,4.45382,5016315
Catarman National Airport,Catarman,Philippines,CRM,12.502400398254396,124.63600158691406,740752
Corpus Christi International Airport,Corpus Christi,United States,CRP,27.77039909362793,-97.5011978149414,323631
Yeager Airport,Charleston,United States,CRW,38.37310028076172,-81.59320068359375,445009
Columbus Metropolitan Airport,Columbus,United States,CSG,32.516300201416016,-84.93890380859375,206529
Solovki Airport,Solovetsky Islands,Russia,CSH,65.0299987793,35.7333335876,204271
Cap Skirring Airport,Cap Skiring,Senegal,CSK,12.39533,-16.748,756485
Changsha Huanghua International Airport,Changcha,China,CSX,28.1891994476,113.220001221,40173663
Cheboksary Airport,Cheboksary,Russia,CSY,56.09030151367188,47.3473014831543,800280
Catania-Fontanarossa Airport,Catania,Italy,CTA,37.466801,15.0664,2025865
Catamarca Airport,Catamarca,Argentina,CTC,-28.5956001282,-65.751701355,648551
Rafael Nuñez International Airport,Cartagena,Colombia,CTG,10.4424,-75.513,3670592
Charleville Airport,Charlieville,Australia,CTL,-26.4132995605,146.261993408,9804
Chetumal International Airport,Chetumal,Mexico,CTM,18.50469970703125,-88.32679748535156,125898
New Chitose Airport,Sapporo,Japan,CTS,42.77519989013672,141.69200134277344,3551668
Chengdu Shuangliu International Airport,Chengdu,China,CTU,30.578500747680664,103.9469985961914,42983218
Camilo Daza International Airport,Cucuta,Colombia,CUC,7.92757,-72.5115,997032
Mariscal Lamar Airport,Cuenca,Ecuador,CUE,-2.88947,-78.984398,860001
Cuneo International Airport,Cuneo,Italy,CUF,44.547001,7.62322,387006
Bachigualato Federal International Airport,Culiacan,Mexico,CUL,24.7644996643,-107.474998474,1140334
Cumaná (Antonio José de Sucre) Airport,Cumana,Venezuela,CUM,10.450332641601562,-64.1304702758789,286079
Cancún International Airport,Cancun,Mexico,CUN,21.036500930800003,-86.8770980835,1582560
Coen Airport,Coen,Australia,CUQ,-13.761133,143.113311,2040
Hato International Airport,Willemstad,Netherlands Antilles,CUR,12.1889,-68.959801,1342935
General Roberto Fierro Villalobos International Airport,Chihuahua,Mexico,CUU,28.702899932900003,-105.964996338,2031473
Alejandro Velasco Astete International Airport,Cuzco,Peru,CUZ,-13.535699844400002,-71.9387969971,1626416
Cincinnati Northern Kentucky International Airport,Cincinnati,United States,CVG,39.0488014221,-84.6678009033,3238546
General Pedro Jose Mendez International Airport,Ciudad Victoria,Mexico,CVM,23.7033004761,-98.9564971924,472124
Corvo Airport,Corvo,Portugal,CVU,39.671501,-31.1136,5251
Central Wisconsin Airport,Wassau,United States,CWA,44.7775993347,-89.6668014526,199468
Afonso Pena Airport,Curitiba,Brazil,CWB,-25.5284996033,-49.1758003235,5757348
Cardiff International Airport,Cardiff,United Kingdom,CWL,51.39670181274414,-3.343329906463623,962907
Cox's Bazar Airport,Cox's Bazar,Bangladesh,CXB,21.45219993591309,91.96389770507812,1358955
Vancouver Harbour Water Aerodrome,Vancouver,Canada,CXH,49.2943992615,-123.111000061,431134
Cassidy International Airport,Kiritimati,Kiribati,CXI,1.9861600399017332,-157.35000610351562,6662
Hugo Cantergiani Regional Airport,Caxias Do Sul,Brazil,CXJ,-29.1970996857,-51.1875,951312
Cam Ranh Airport,Nha Trang,Vietnam,CXR,11.99820041656494,109.21900177001952,1409500
Gerrard Smith International Airport,Cayman Brac,Cayman Islands,CYB,19.687000274658203,-79.88279724121094,109053
Chefornak Airport,Chefornak,United States,CYF,60.1492004395,-164.285995483,902
Vilo Acuña International Airport,Cayo Largo del Sur,Cuba,CYO,21.6165008545,-81.5459976196,456768
Calbayog Airport,Calbayog City,Philippines,CYP,12.072699546813965,124.54499816894533,863112
Cheyenne Regional Jerry Olson Field,Cheyenne,United States,CYS,41.15570068,-104.8119965,172835
Cherskiy Airport,Cherskiy,Russia,CYX,68.7406005859375,161.33799743652344,7221
Cauayan Airport,Cauayan,Philippines,CYZ,16.9298992157,121.752998352,2522819
José Leonardo Chirinos Airport,Coro,Venezuela,CZE,11.41494369506836,-69.68090057373047,439064
Mohamed Boudiaf International Airport,Constantine,Algeria,CZL,36.2760009765625,6.620389938354492,3681826
Cozumel International Airport,Cozumel,Mexico,CZM,20.52239990234375,-86.92559814453125,310512
Cruzeiro do Sul Airport,Cruzeiro do Sul,Brazil,CZS,-7.59990978241,-72.7695007324,202504
Las Brujas Airport,Corozal,Colombia,CZU,9.33274,-75.2856,1289545
Changzhou Benniu Airport,Changzhou,China,CZX,31.919701,119.778999,7892523
Daytona Beach International Airport,Daytona Beach,United States,DAB,29.179899,-81.058098,176515
Hazrat Shahjalal International Airport,Dhaka,Bangladesh,DAC,23.843347,90.397783,74012411
Da Nang International Airport,Danang,Vietnam,DAD,16.043899536132812,108.1989974975586,4631915
Dallas Love Field,Dallas,United States,DAL,32.847099,-96.851799,1112088
Julius Nyerere International Airport,Dar Es Salaam,Tanzania,DAR,-6.87811,39.202599,7863255
Datong Airport,Datong,China,DAT,40.060299,113.482002,3582232
Daru Airport,Daru,Papua New Guinea,DAU,-9.08675956726,143.207992554,32637
Enrique Malek International Airport,David,Panama,DAV,8.390999794006348,-82.43499755859375,161461
Dachuan Airport,Dazhou,China,DAX,31.1302,107.4295,3567272
James M Cox Dayton International Airport,Dayton,United States,DAY,39.90240097045898,-84.21939849853516,1151595
Dalbandin Airport,Dalbandin,Pakistan,DBA,28.8782997131,64.3998031616,497789
Dubbo City Regional Airport,Dubbo,Australia,DBO,-32.2167015076,148.574996948,120472
Dubuque Regional Airport,Dubuque IA,United States,DBQ,42.40200043,-90.70950317,190657
Dubrovnik Airport,Dubrovnik,Croatia,DBV,42.5614013671875,18.268199920654297,2572637
Ronald Reagan Washington National Airport,Washington,United States,DCA,38.8521,-77.037697,3937719
Castres-Mazamet Airport,Castres,France,DCM,43.55630111694336,2.289180040359497,459104
RAAF Base Curtin,Derby,Australia,DCN,-17.5813999176,123.82800293,7575
Daocheng Yading Airport,Daocheng,China,DCY,29.323056,100.053333,480990
Dodge City Regional Airport,Dodge City,United States,DDC,37.76340103149414,-99.9655990600586,284864
Dandong Airport,Dandong,China,DDG,40.0247,124.286003,3940136
Dera Ghazi Khan Airport,Dera Ghazi Khan,Pakistan,DEA,29.961000442504883,70.48590087890625,7390693
Debrecen International Airport,Debrecen,Hungary,DEB,47.48889923095703,21.61529922485352,586770
Decatur Airport,Decatur,United States,DEC,39.834598541259766,-88.8656997680664,226902
Dehradun Airport,Dehra Dun,India,DED,30.189699,78.180298,6920259
Mendeleyevo Airport,Yuzhno-Kurilsk,Russia,DEE,43.9584007263,145.682998657,45363
Dezful Airport,Dezful,Iran,DEF,32.434399,48.397598,1265720
Indira Gandhi International Airport,Delhi,India,DEL,28.5665,77.103104,145685887
Denver International Airport,Denver,United States,DEN,39.861698150635,-104.672996521,4697159
Dallas Fort Worth International Airport,Dallas-Fort Worth,United States,DFW,32.896801,-97.038002,9299733
General Guadalupe Victoria International Airport,Durango,Mexico,DGO,24.1242008209,-104.527999878,1490034
Sibulan Airport,Dumaguete,Philippines,DGT,9.3337097168,123.300003052,1261919
Dhangarhi Airport,Dhangarhi,Nepal,DHI,28.75329971313477,80.58190155029297,11218034
Kangra Airport,Kangra,India,DHM,32.16510009765625,76.26339721679688,3195647
Dothan Regional Airport,Dothan,United States,DHN,31.3213005065918,-85.44960021972656,182873
Dibrugarh Airport,Mohanbari,India,DIB,27.4839000702,95.0168991089,5841377
Arrachart Airport,Antsiranana,Madagascar,DIE,-12.34939956665039,49.29169845581055,677198
Diqing Airport,Shangri-La,China,DIG,27.7936,99.6772,1268424
Dijon-Bourgogne Airport,Dijon,France,DIJ,47.268902,5.09,199707
Dickinson Theodore Roosevelt Regional Airport,Dickinson,United States,DIK,46.7974014282,-102.802001953,60444
Presidente Nicolau Lobato International Airport,Dili,East Timor,DIL,-8.54640007019,125.526000977,1674587
Dien Bien Phu Airport,Dienbienphu,Vietnam,DIN,21.3974990845,103.008003235,1726413
Aba Tenna Dejazmach Yilma International Airport,Dire Dawa,Ethiopia,DIR,9.624699592590332,41.85419845581055,3437673
Diu Airport,Diu,India,DIU,20.71310043334961,70.92109680175781,3055184
Diyarbakir Airport,Diyabakir,Turkey,DIY,37.893901825,40.2010002136,1617044
Sultan Thaha Airport,Jambi,Indonesia,DJB,-1.6380200386047363,103.6439971923828,3262730
Djerba Zarzis International Airport,Djerba,Tunisia,DJE,33.875,10.775500297546388,1819983
Djanet Inedbirene Airport,Djanet,Algeria,DJG,24.292801,9.45244,30947
Sentani International Airport,Jayapura,Indonesia,DJJ,-2.5769500733,140.5160064698,1432444
Léopold Sédar Senghor International Airport,Dakar,Senegal,DKR,14.739700317382812,-17.49020004272461,10797814
Douala International Airport,Douala,Cameroon,DLA,4.0060801506,9.71947956085,9504282
Zhoushuizi Airport,Dalian,China,DLC,38.9656982421875,121.53900146484376,10984072
Dole-Tavaux Airport,Dole,France,DLE,47.042686,5.435063,310331
Dillingham Airport,Dillingham,United States,DLG,59.04470062,-158.5050049,530
Duluth International Airport,Duluth,United States,DLH,46.8420982361,-92.1936035156,220910
Lien Khuong Airport,Dalat,Vietnam,DLI,11.75,108.366997,2112464
Dalaman International Airport,Dalaman,Turkey,DLM,36.7131004333,28.7924995422,854741
Dali Airport,Dali,China,DLU,25.649401,100.319,2118103
Dillon's Bay Airport,Dillon's Bay,Vanuatu,DLY,-18.7693996429,169.00100708,5833
Taraz Airport,Dzhambul,Kazakhstan,DMB,42.85359954833984,71.30359649658203,1179718
Doomadgee Airport,Doomadgee,Australia,DMD,-17.9403,138.822006,1779
Domodedovo International Airport,Moscow,Russia,DME,55.40879821777344,37.90629959106445,13459812
Don Mueang International Airport,Bangkok,Thailand,DMK,13.9125995636,100.607002258,15081200
King Fahd International Airport,Dammam,Saudi Arabia,DMM,26.471200942993164,49.79790115356445,3883866
Dimapur Airport,Dimapur,India,DMU,25.8838996887,93.7711029053,5534810
Dundee Airport,Dundee,United Kingdom,DND,56.45249938964844,-3.025830030441284,89212
Dunhuang Airport,Dunhuang,China,DNH,40.16109848022461,94.80919647216795,457475
Dnipropetrovsk International Airport,Dnepropetrovsk,Ukraine,DNK,48.357200622558594,35.10060119628906,3875892
Dinard-Pleurtuit-Saint-Malo Airport,Dinard,France,DNR,48.58769989013672,-2.0799601078033447,321207
Çardak Airport,Denizli,Turkey,DNZ,37.7855987549,29.7012996674,266655
Rar Gwamar Airport,Dobo,Indonesia,DOB,-5.77222013474,134.212005615,108476
Hamad International Airport,Doha,Qatar,DOH,25.273056,51.608056,5972528
Donetsk International Airport,Donetsk,Ukraine,DOK,48.07360076904297,37.73970031738281,3740959
Deauville-Saint-Gatien Airport,Deauville,France,DOL,49.3652992249,0.154305994511,224160
Douglas-Charles Airport,Dominica,Dominica,DOM,15.547,-61.299999,147407
Dourados Airport,Dourados,Brazil,DOU,-22.2019,-54.926601,823847
Dongying Shengli Airport,Dongying,China,DOY,37.5085983276,118.788002014,4108873
Dipolog Airport,Dipolog,Philippines,DPL,8.60198349877,123.341875076,1945270
Devonport Airport,Devonport,Australia,DPO,-41.1697006226,146.429992676,45175
Ngurah Rai (Bali) International Airport,Denpasar,Indonesia,DPS,-8.7481698989868,115.16699981689,10263934
Saertu Airport,Daqing,China,DQA,46.7463888889,125.140555556,3036279
Deering Airport,Deering,United States,DRG,66.0696029663,-162.76600647,773
Drake Bay Airport,Puntarenas,Costa Rica,DRK,8.71889019012,-83.6417007446,150397
Durango La Plata County Airport,Durango,United States,DRO,37.1515007019,-107.753997803,188960
Dresden Airport,Dresden,Germany,DRS,51.1328010559082,13.767200469970703,1491425
Dharavandhoo Airport,DHARAVANDHOO,Maldives,DRV,5.1561,73.1302,92013
Darwin International Airport,Darwin,Australia,DRW,-12.41469955444336,130.8769989013672,139248
Robin Hood Doncaster Sheffield Airport,"Doncaster, Sheffield",United Kingdom,DSA,53.4805378105,-1.01065635681,565214
Dera Ismael Khan Airport,Dera Ismael Khan,Pakistan,DSK,31.909400939941406,70.89659881591797,7896492
Des Moines International Airport,Des Moines,United States,DSM,41.53400039672852,-93.66310119628906,1081970
Ordos Ejin Horo Airport,Dongsheng,China,DSN,39.49,109.861388889,4410793
Dortmund Airport,Dortmund,Germany,DTM,51.51829910279999,7.61223983765,2008906
Detroit Metropolitan Wayne County Airport,Detroit,United States,DTW,42.212398529052734,-83.35340118408203,7672606
Dublin Airport,Dublin,Ireland,DUB,53.421299,-6.27007,4327971
Dunedin Airport,Dunedin,New Zealand,DUD,-45.9281005859375,170.197998046875,99680
DuBois Regional Airport,Du Bois,United States,DUJ,41.17829895,-78.8986969,238932
King Shaka International Airport,Durban,South Africa,DUR,-29.6144444444,31.1197222222,6911312
Düsseldorf Airport,Duesseldorf,Germany,DUS,51.289501,6.76678,9419251
Unalaska Airport,Unalaska,United States,DUT,53.900100708,-166.544006348,2841
Francisco Bangoy International Airport,Davao,Philippines,DVO,7.1255202293396,125.64600372314452,4996185
Al Maktoum International Airport,Dubai,United Arab Emirates,DWC,24.896356,55.161389,821648
Dubai International Airport,Dubai,United Arab Emirates,DXB,25.2527999878,55.3643989563,3968908
Dayong Airport,Dayong,China,DYG,29.1028,110.443001,8558847
Ugolny Airport,Anadyr,Russia,DYR,64.734902,177.740997,16180
Dushanbe Airport,Dushanbe,Tajikistan,DYU,38.5433006287,68.8249969482,8590627
Dzaoudzi Pamandzi International Airport,Dzaoudzi,Mayotte,DZA,-12.804699897766112,45.28110122680664,425629
Zhezkazgan Airport,Zhezkazgan,Kazakhstan,DZN,47.708302,67.733299,174274
Siwo Airport,Sangafa,Vanuatu,EAE,-17.0902996063,168.343002319,4984
Nejran Airport,Nejran,Saudi Arabia,EAM,17.611400604248047,44.4192008972168,1439774
San Sebastian Airport,San Sebastian,Spain,EAS,43.35649871826172,-1.7906099557876587,333702
Pangborn Memorial Airport,Wenatchee,United States,EAT,47.3988990784,-120.207000732,117060
Chippewa Valley Regional Airport,Eau Claire,United States,EAU,44.86579895019531,-91.48429870605467,168383
Marina Di Campo Airport,Marina Di Campo,Italy,EBA,42.7603,10.2394,298078
Entebbe International Airport,Entebbe,Uganda,EBB,0.042386,32.443501,22647519
El Bayadh Airport,El Bayadh,Algeria,EBH,33.7216666667,1.0925,445428
Esbjerg Airport,Esbjerg,Denmark,EBJ,55.525902,8.5534,223137
Erbil International Airport,Erbil,Iraq,EBL,36.23759841918945,43.96319961547852,8254537
Saint-Étienne-Bouthéon Airport,St-Etienne,France,EBU,45.54059982299805,4.296390056610107,377241
Ercan International Airport,Nicosia,Cyprus,ECN,35.15470123291016,33.49610137939453,1222559
Northwest Florida Beaches International Airport,Panama City,United States,ECP,30.357106,-85.795414,341426
Edinburgh Airport,Edinburgh,United Kingdom,EDI,55.95000076293945,-3.372499942779541,2853503
Eldoret International Airport,Eldoret,Kenya,EDL,0.4044579863548279,35.23889923095703,8987057
Balıkesir Körfez Airport,Balikesir Korfez,Turkey,EDO,39.554599762,27.0137996674,261481
Pormpuraaw Airport,Pormpuraaw,Australia,EDR,-14.896451,141.60908,804
Eek Airport,Eek,United States,EEK,60.21367264,-162.0438843,743
Kefallinia Airport,Keffallinia,Greece,EFL,38.12009811401367,20.5004997253418,130027
Bergerac-Roumanière Airport,Bergerac,France,EGC,44.82529830932617,0.5186110138893127,601613
Eagle County Regional Airport,Vail,United States,EGE,39.64260101,-106.9179993,104665
Sege Airport,Sege,Solomon Islands,EGM,-8.578889846801758,157.87600708007812,47213
Geneina Airport,Geneina,Sudan,EGN,13.48169994354248,22.467199325561523,4544522
Belgorod International Airport,Belgorod,Russia,EGO,50.643798828125,36.5900993347168,3579939
Egilsstaðir Airport,Egilsstadir,Iceland,EGS,65.2833023071289,-14.401399612426758,16641
Egegik Airport,Egegik,United States,EGX,58.1855010986,-157.375,436
Eindhoven Airport,Eindhoven,Netherlands,EIN,51.4500999451,5.37452983856,3071766
Terrance B. Lettsome International Airport,Tortola,British Virgin Islands,EIS,18.444799423217773,-64.54299926757812,124282
Yariguíes Airport,Barrancabermeja,Colombia,EJA,7.02433,-73.8068,758364
Al Wajh Domestic Airport,Wejh,Saudi Arabia,EJH,26.19860076904297,36.47639846801758,74691
Elko Regional Airport,Elko,United States,EKO,40.82490158081055,-115.79199981689452,48687
Shakhtyorsk Airport,Shakhtyorsk,Russia,EKS,49.1903,142.082993,117591
Elcho Island Airport,Elcho Island,Australia,ELC,-12.019399642899998,135.570999146,3766
South Arkansas Regional At Goodwin Field,El Dorado,United States,ELD,33.22100067138672,-92.81330108642578,388695
El Fasher Airport,El Fasher,Sudan,ELF,13.61489963531494,25.32460021972656,3248241
El Golea Airport,El Golea,Algeria,ELG,30.5713005065918,2.8595900535583496,164553
North Eleuthera Airport,North Eleuthera,Bahamas,ELH,25.474899292,-76.6835021973,18922
Elim Airport,Elim,United States,ELI,64.61470032,-162.2720032,528
Elmira Corning Regional Airport,Elmira,United States,ELM,42.1599006652832,-76.8916015625,306951
El Paso International Airport,El Paso,United States,ELP,31.80719948,-106.3779984,1318011
Gassim Airport,Gassim,Saudi Arabia,ELQ,26.30279922485352,43.77439880371094,1835526
Ben Schoeman Airport,East London,South Africa,ELS,-33.0355987549,27.8258991241,2268186
Guemar Airport,Guemar,Algeria,ELU,33.5113983154,6.77679014206,311703
East Midlands Airport,East Midlands,United Kingdom,EMA,52.8311004639,-1.32806003094,3179508
Emerald Airport,Emerald,Australia,EMD,-23.5674991608,148.179000854,17013
Emmonak Airport,Emmonak,United States,EMK,62.78609848,-164.4909973,1407
Kenai Municipal Airport,Kenai,United States,ENA,60.57310104370117,-151.2449951171875,14699
Ende (H Hasan Aroeboesman) Airport,Ende,Indonesia,ENE,-8.8492898941,121.661003113,1036339
Enshi Airport,Enshi,China,ENH,30.3202991486,109.48500061,1603436
Akanu Ibiam International Airport,Enugu,Nigeria,ENU,6.474269866943359,7.561960220336914,10378932
Yan'an Ershilipu Airport,Yan'an,China,ENY,36.636902,109.554001,2746316
Enrique Olaya Herrera Airport,Medellin,Colombia,EOH,6.220549,-75.590582,4142930
Eday Airport,Eday,United Kingdom,EOI,59.19060134887695,-2.7722198963165283,25075
Esperance Airport,Esperance,Australia,EPR,-33.684399,121.822998,6682
Brigadier Antonio Parodi Airport,Esquel,Argentina,EQS,-42.908000946,-71.139503479,103846
Erzincan Airport,Erzincan,Turkey,ERC,39.7102012634,39.5270004272,903422
Erfurt Airport,Erfurt,Germany,ERF,50.97980117797852,10.958100318908691,483957
Erie International Tom Ridge Field,Erie,United States,ERI,42.0831270134,-80.1738667488,385567
Erenhot Saiwusu International Airport,Erenhot,China,ERL,43.4225,112.096667,312578
Erechim Airport,Erechim,Brazil,ERM,-27.66189956665039,-52.2682991027832,962743
Eirunepé Airport,Eirunepe,Brazil,ERN,-6.639530181884766,-69.87979888916016,138404
Eros Airport,Windhoek,Namibia,ERS,-22.612199783325195,17.080400466918945,312781
Erzurum International Airport,Erzurum,Turkey,ERZ,39.9565010071,41.17020034789999,763527
Esenboğa International Airport,Ankara,Turkey,ESB,40.1281013489,32.995098114,8161005
Delta County Airport,Escanaba,United States,ESC,45.7226982117,-87.0936965942,92533
Orcas Island Airport,Eastsound,United States,ESD,48.7081985474,-122.910003662,356469
Elista Airport,Elista,Russia,ESL,46.3739013671875,44.33089828491211,369691
General Rivadeneira Airport,Esmeraldas,Ecuador,ESM,0.9785190224647522,-79.62660217285156,828428
Mogador Airport,Essadouira,Morocco,ESU,31.3974990845,-9.6816701889,435101
Eilat Airport,Elat,Israel,ETH,29.56130027770996,34.96009826660156,444356
Santa Rosa International Airport,Santa Rosa,Ecuador,ETR,-3.441986,-79.996957,966708
Metz-Nancy-Lorraine Airport,Metz,France,ETZ,48.9821014404,6.25131988525,366431
Mahlon Sweet Field,Eugene,United States,EUG,44.12459945678711,-123.21199798583984,467938
Hassan I Airport,El Aaiún,Western Sahara,EUN,27.151699,-13.2192,53908
F. D. Roosevelt Airport,Oranjestad,Netherlands Antilles,EUX,17.49650001525879,-62.979400634765625,19497
"Harstad/Narvik Airport, Evenes",Harstad/Narvik,Norway,EVE,68.491302490234,16.678100585938,34697
Sveg Airport,Sveg,Sweden,EVG,62.04779815673828,14.422900199890137,64419
Zvartnots International Airport,Yerevan,Armenia,EVN,40.1473007202,44.3959007263,4914665
Evansville Regional Airport,Evansville,United States,EVV,38.0369987488,-87.5324020386,422347
New Bedford Regional Airport,New Bedford,United States,EWB,41.67610168457031,-70.95690155029297,234217
Coastal Carolina Regional Airport,New Bern,United States,EWN,35.0730018616,-77.04290008539999,144951
Newark Liberty International Airport,Newark,United States,EWR,40.692501068115234,-74.168701171875,7545955
Exeter International Airport,Exeter,United Kingdom,EXT,50.73440170288086,-3.4138898849487305,700460
Beloyarskiy Airport,Beloyarsky,Russia,EYK,63.686901,66.698601,209964
El Yopal Airport,Yopal,Colombia,EYP,5.31911,-72.384,262989
Key West International Airport,Key West,United States,EYW,24.556100845336918,-81.75959777832031,635580
Ministro Pistarini International Airport,Buenos Aires,Argentina,EZE,-34.8222,-58.5358,6227239
Elazığ Airport,Elazig,Turkey,EZS,38.6068992615,39.2914009094,1343038
Vagar Airport,Vagar,Faroe Islands,FAE,62.0635986328125,-7.277219772338867,53560
Fairbanks International Airport,Fairbanks,United States,FAI,64.81510162,-147.8560028,59830
Hector International Airport,Fargo,United States,FAR,46.92070007324219,-96.81580352783205,263126
Fresno Yosemite International Airport,Fresno,United States,FAT,36.77619934082031,-119.71800231933594,505088
Fakarava Airport,Fakarava,French Polynesia,FAV,-16.054100036621094,-145.65699768066406,1350
Fayetteville Regional Grannis Field,Fayetteville,United States,FAY,34.9911994934082,-78.88030242919922,304507
Lubumbashi International Airport,Lubumashi,Congo (Kinshasa),FBM,-11.5913000107,27.5308990479,7721081
Glacier Park International Airport,Kalispell,United States,FCA,48.31050109863281,-114.25599670410156,152724
Leonardo da Vinci–Fiumicino Airport,Rome,Italy,FCO,41.8002778,12.2388889,7655450
Martinique Aimé Césaire International Airport,Fort-de-france,Martinique,FDF,14.590999603271484,-61.00320053100586,221132
Friedrichshafen Airport,Friedrichshafen,Germany,FDH,47.6712989807,9.51148986816,830597
Fergana International Airport,Fergana,Uzbekistan,FEG,40.3587989807,71.7450027466,1390257
Fernando de Noronha Airport,Fernando Do Noronha,Brazil,FEN,-3.85493,-32.423302,3370
Saïss Airport,Fes,Morocco,FEZ,33.9272994995,-4.977960109709999,2424962
Ndjili International Airport,Kinshasa,Congo (Kinshasa),FIH,-4.38575,15.4446,8796299
Fujairah International Airport,Fujeirah,United Arab Emirates,FJR,25.112199783325195,56.32400131225586,196717
Karlsruhe Baden-Baden Airport,Karlsruhe/Baden-Baden,Germany,FKB,48.7793998718,8.08049964905,895263
Bangoka International Airport,Kisangani,Congo (Kinshasa),FKI,0.481638997793,25.3379993439,3308731
Venango Regional Airport,Franklin,United States,FKL,41.3778991699,-79.8603973389,266579
Fakfak Airport,Fak Fak,Indonesia,FKQ,-2.9201900959014893,132.26699829101562,236614
Fukushima Airport,Fukushima,Japan,FKS,37.22740173339844,140.43099975585938,1206759
Gustavo Artunduaga Paredes Airport,Florencia,Colombia,FLA,1.58919,-75.5644,329782
Flagstaff Pulliam Airport,Flagstaff,United States,FLG,35.13850021,-111.6709976,127391
Fort Lauderdale Hollywood International Airport,Fort Lauderdale,United States,FLL,26.072599,-80.152702,2023700
Hercílio Luz International Airport,Florianopolis,Brazil,FLN,-27.670278549194336,-48.5525016784668,1435332
Florence Regional Airport,Florence,United States,FLO,34.18539810180664,-79.7238998413086,170834
Peretola Airport,Florence,Italy,FLR,43.810001,11.2051,1207758
Flinders Island Airport,Flinders Island,Australia,FLS,-40.0917015076,147.992996216,44647
Flores Airport,Flores,Portugal,FLW,39.455299377441406,-31.13139915466309,8282
Formosa Airport,Formosa,Argentina,FMA,-26.2127,-58.2281,1699113
Memmingen Allgau Airport,Memmingen,Germany,FMM,47.9888000488,10.2395000458,1039417
Four Corners Regional Airport,Farmington,United States,FMN,36.7411994934,-108.230003357,304323
Münster Osnabrück Airport,Munster,Germany,FMO,52.134601593,7.68483018875,870899
Lungi International Airport,Freetown,Sierra Leone,FNA,8.61644,-13.1955,5922976
Madeira Airport,Funchal,Portugal,FNC,32.697899,-16.7745,237307
Nîmes-Arles-Camargue Airport,Nimes,France,FNI,43.75740051269531,4.4163498878479,246859
Pyongyang Sunan International Airport,Pyongyang,North Korea,FNJ,39.224098,125.669998,5331551
Bishop International Airport,Flint,United States,FNT,42.96540069580078,-83.74359893798828,466399
Fuzhou Changle International Airport,Fuzhou,China,FOC,25.93510055541992,119.66300201416016,13230944
Topeka Regional Airport - Forbes Field,Topeka,United States,FOE,38.9509010315,-95.6635971069,262300
Arenal Airport,La Fortuna/San Carlos,Costa Rica,FON,10.478,-84.634499,184260
Pinto Martins International Airport,Fortaleza,Brazil,FOR,-3.776279926300049,-38.53260040283203,7312532
Grand Bahama International Airport,Freeport,Bahamas,FPO,26.5587005615,-78.695602417,219917
Frankfurt am Main Airport,Frankfurt,Germany,FRA,50.033333,8.570556,13083169
Friday Harbor Airport,Friday Harbor,United States,FRD,48.5219993591,-123.024002075,370944
Fera/Maringe Airport,Fera Island,Solomon Islands,FRE,-8.1075,159.576996,22543
Florø Airport,Floro,Norway,FRO,61.583599090576,5.0247201919556,60002
Mundo Maya International Airport,Flores,Guatemala,FRS,16.913799285899998,-89.86640167239999,1012795
Manas International Airport,Bishkek,Kyrgyzstan,FRU,43.0612983704,74.4776000977,2290159
Francistown Airport,Francistown,Botswana,FRW,-21.15959930419922,27.47450065612793,1026592
Figari Sud-Corse Airport,Figari,France,FSC,41.5005989074707,9.097780227661133,189732
Joe Foss Field Airport,Sioux Falls,United States,FSD,43.5820007324,-96.741897583,546984
Fort Smith Regional Airport,Fort Smith,United States,FSM,35.33660125732422,-94.36740112304688,269601
St Pierre Airport,St.-pierre,Saint Pierre and Miquelon,FSP,46.76290130615234,-56.173099517822266,16246
Futuna Airport,Futuna Island,Vanuatu,FTA,-19.5163993835,170.231994629,2590
El Calafate Airport,El Calafate,Argentina,FTE,-50.2803,-72.053101,113836
Tôlanaro Airport,Tolagnaro,Madagascar,FTU,-25.03809928894043,46.95610046386719,2173644
Fuerteventura Airport,Fuerteventura,Spain,FUE,28.452699661254883,-13.863800048828123,356207
Fuyang Xiguan Airport,Fuyang,China,FUG,32.882157,115.734364,9174244
Fukue Airport,Fukue,Japan,FUJ,32.66630172729492,128.83299255371094,389777
Fukuoka Airport,Fukuoka,Japan,FUK,33.585899353027344,130.4510040283203,4979027
Funafuti International Airport,Funafuti,Tuvalu,FUN,-8.525,179.195999,10243
Foshan Shadi Airport,Foshan,China,FUO,23.0832996368,113.069999695,932682
Pointe Vele Airport,Futuna Island,Wallis and Futuna,FUT,-14.3114004135,-178.065994263,5527
Fort Wayne International Airport,Fort Wayne,United States,FWA,40.97850037,-85.19509888,812072
Fort Yukon Airport,Fort Yukon,United States,FYU,66.57150268554688,-145.25,17598
Gabès Matmata International Airport,Gabes,Tunisia,GAE,33.87689971923828,10.103300094604492,333116
Gafsa Ksar International Airport,Gafsa,Tunisia,GAF,34.422000885009766,8.822500228881836,334003
Yamagata Airport,Yamagata,Japan,GAJ,38.4118995667,140.371002197,974398
Edward G. Pitka Sr Airport,Galena,United States,GAL,64.73619843,-156.9369965,309
Gambell Airport,Gambell,United States,GAM,63.76679992675781,-171.73300170898438,1668
Gan International Airport,Gan Island,Maldives,GAN,-0.693342,73.155602,23713
Mariana Grajales Airport,Guantanamo,Cuba,GAO,20.08530044555664,-75.1583023071289,857402
Lokpriya Gopinath Bordoloi International Airport,Guwahati,India,GAU,26.10610008239746,91.58589935302734,23506020
Gabala International Airport,Qabala,Azerbaijan,GBB,40.826667,47.7125,744945
Sir Seretse Khama International Airport,Gaberone,Botswana,GBE,-24.555201,25.9182,3146323
Gorgan Airport,Gorgan,Iran,GBT,36.9094009399,54.4012985229,1481653
Gillette Campbell County Airport,Gillette,United States,GCC,44.3488998413,-105.539001465,105707
Gachsaran Airport,Gachsaran,Iran,GCH,30.337600708,50.827999115,534662
Guernsey Airport,Guernsey,Guernsey,GCI,49.435001373291016,-2.601969957351685,917241
Garden City Regional Airport,Garden City,United States,GCK,37.9275016785,-100.723999023,72554
Owen Roberts International Airport,Georgetown,Cayman Islands,GCM,19.2928009033,-81.3576965332,43954
Grand Canyon National Park Airport,Grand Canyon,United States,GCN,35.95240020751953,-112.14700317382812,96542
Gode Airport,Gode,Ethiopia,GDE,5.93513011932,43.5786018372,2546339
Don Miguel Hidalgo Y Costilla International Airport,Guadalajara,Mexico,GDL,20.52179908752441,-103.31099700927734,9841795
Gdańsk Lech Wałęsa Airport,Gdansk,Poland,GDN,54.37760162353516,18.46619987487793,4016796
Gonder Airport,Gondar,Ethiopia,GDQ,12.51990032196045,37.43399810791016,6873664
JAGS McCartney International Airport,Cockburn Town,Turks and Caicos Islands,GDT,21.444499969482425,-71.14230346679688,530568
Dawson Community Airport,Glendive,United States,GDV,47.13869858,-104.8069992,22305
Sokol Airport,Magadan,Russia,GDX,59.9109992980957,150.72000122070312,101159
Gelendzhik Airport,Gelendzhik,Russia,GDZ,44.5820926295,38.0124807358,309593
Nouméa Magenta Airport,Noumea,New Caledonia,GEA,-22.25830078125,166.47300720214844,93714
Spokane International Airport,Spokane,United States,GEG,47.61989974975586,-117.53399658203124,373756
Cheddi Jagan International Airport,Georgetown,Guyana,GEO,6.498549938201904,-58.25410079956055,535020
General Santos International Airport,Romblon,Philippines,GES,6.05800008774,125.096000671,1699439
Geraldton Airport,Geraldton,Australia,GET,-28.796101,114.707001,50268
Gällivare Airport,Gallivare,Sweden,GEV,67.13240051269531,20.814599990844727,70606
Griffith Airport,Griffith,Australia,GFF,-34.2508010864,146.067001343,78547
Grand Forks International Airport,Grand Forks,United States,GFK,47.949299,-97.176102,277451
Grafton Airport,Grafton,Australia,GFN,-29.7593994140625,153.02999877929688,67311
East Texas Regional Airport,Longview,United States,GGG,32.38399887084961,-94.71150207519533,173820
Exuma International Airport,Great Exuma,Bahamas,GGT,23.5625991821,-75.8779983521,35957
Wokal Field Glasgow International Airport,Glasgow,United States,GGW,48.212502,-106.614998,19314
Noumérat - Moufdi Zakaria Airport,Ghardaia,Algeria,GHA,32.38410186767578,3.794110059738159,513341
Governor's Harbour Airport,Governor's Harbor,Bahamas,GHB,25.2847003937,-76.3310012817,16708
Ghat Airport,Ghat,Libya,GHT,25.1455993652,10.1426000595,65282
Gibraltar Airport,Gibraltar,Gibraltar,GIB,36.1511993408,-5.3496599197400005,773849
Rio Galeão – Tom Jobim International Airport,Rio De Janeiro,Brazil,GIG,-22.8099994659,-43.2505569458,10373025
Gilgit Airport,Gilgit,Pakistan,GIL,35.918800354003906,74.33360290527344,1537616
Gisborne Airport,Gisborne,New Zealand,GIS,-38.66329956054688,177.97799682617188,30854
Sigiriya Air Force Base,Sigiriya,Sri Lanka,GIU,7.956669807430001,80.7285003662,3774107
Jizan Regional Airport,Gizan,Saudi Arabia,GIZ,16.901100158691406,42.58580017089844,2455318
La Laguna Airport,Guanaja,Honduras,GJA,16.4454,-85.906601,202980
Grand Junction Regional Airport,Grand Junction,United States,GJT,39.1223983765,-108.527000427,139136
Kooddoo Airport,Kooddoo,Maldives,GKK,0.7324,73.4336,28700
Glasgow International Airport,Glasgow,United Kingdom,GLA,55.8718986511,-4.43306016922,2162502
Golfito Airport,Golfito,Costa Rica,GLF,8.654009819030762,-83.18219757080078,215545
Mid Delta Regional Airport,Greenville,United States,GLH,33.4828987121582,-90.98560333251952,335127
Galcaio Airport,Galcaio,Somalia,GLK,6.78082990646,47.45470047,1371750
Gloucestershire Airport,Golouchestershire,United Kingdom,GLO,51.89419937133789,-2.167220115661621,257363
Gladstone Airport,Gladstone,Australia,GLT,-23.869699,151.223007,128542
Golovin Airport,Golovin,United States,GLV,64.5504989624,-163.007003784,621
Gemena Airport,Gemena,Congo (Kinshasa),GMA,3.23536992073,19.7712993622,5895704
Gambella Airport,Gambella,Ethiopia,GMB,8.12876033782959,34.5630989074707,5554763
Gombe Lawanti International Airport,Gombe,Nigeria,GMO,10.2983333333,10.8963888889,8551824
Gimpo International Airport,Seoul,South Korea,GMP,37.5583,126.791,5836877
Totegegie Airport,Totegegie,French Polynesia,GMR,-23.07990074157715,-134.88999938964844,1407
La Gomera Airport,La Gomera,Spain,GMZ,28.029600143432617,-17.214599609375,41476
Point Salines International Airport,Point Salines,Grenada,GND,12.004199981689451,-61.78620147705078,426070
Guanambi Airport,Guanambi,Brazil,GNM,-14.208200454711914,-42.74610137939453,937122
Gainesville Regional Airport,Gainesville,United States,GNV,29.6900997162,-82.2717971802,366411
Şanlıurfa GAP Airport,Sanliurfa,Turkey,GNY,37.445663,38.895592,2586635
Genoa Cristoforo Colombo Airport,Genoa,Italy,GOA,44.4133,8.8375,841198
Godthaab / Nuuk Airport,Godthaab,Greenland,GOH,64.19090271,-51.6781005859,16029
Dabolim Airport,Goa,India,GOI,15.3808002472,73.8313980103,14927353
Nizhny Novgorod Strigino International Airport,Nizhniy Novgorod,Russia,GOJ,56.230098724365,43.784000396729,3925286
Goma International Airport,Goma,Congo (Kinshasa),GOM,-1.670809984207153,29.238500595092773,8616403
Gorakhpur Airport,Gorakhpur,India,GOP,26.7397003174,83.4496994019,12065116
Golmud Airport,Golmud,China,GOQ,36.4006,94.786102,448105
Gothenburg-Landvetter Airport,Gothenborg,Sweden,GOT,57.662799835205,12.279800415039,1132215
Garoua International Airport,Garoua,Cameroon,GOU,9.33588981628418,13.370100021362305,5923210
Gove Airport,Gove,Australia,GOV,-12.269399642899998,136.817993164,3253
Araxos Airport,Patras,Greece,GPA,38.1511,21.4256,179546
Tancredo Thomas de Faria Airport,Guarapuava,Brazil,GPB,-25.3875007629,-51.520198822,652248
Juan Casiano Airport,Guapi,Colombia,GPI,2.57013,-77.8986,572675
Seymour Airport,Galapagos,Ecuador,GPS,-0.4537580013275146,-90.26589965820312,17583
Gulfport Biloxi International Airport,Gulfport,United States,GPT,30.40730094909668,-89.07009887695312,427341
Austin Straubel International Airport,Green Bay,United States,GRB,44.48509979248047,-88.12960052490234,284683
Central Nebraska Regional Airport,Grand Island,United States,GRI,40.96749877929688,-98.30960083007812,267998
George Airport,George,South Africa,GRJ,-34.0056,22.378902,611705
Robert Gray  Army Air Field Airport,Killeen,United States,GRK,31.067199707,-97.8289031982,490110
Girona Airport,Gerona,Spain,GRO,41.901000977,2.7605500221,1574315
Gurupi Airport,Gurupi,Brazil,GRP,-11.73960018157959,-49.13219833374024,279366
Eelde Airport,Groningen,Netherlands,GRQ,53.1197013855,6.57944011688,460140
Gerald R. Ford International Airport,Grand Rapids,United States,GRR,42.88079834,-85.52279663,1251676
Guarulhos - Governador André Franco Montoro International Airport,Sao Paulo,Brazil,GRU,-23.435556411743164,-46.47305679321289,16864455
Graciosa Airport,Graciosa Island,Portugal,GRW,39.09220123291016,-28.029800415039062,14089
Federico Garcia Lorca Airport,Granada,Spain,GRX,37.18870162963867,-3.777359962463379,476579
Graz Airport,Graz,Austria,GRZ,46.9911003112793,15.439599990844728,786327
Gothenburg City Airport,Gothenborg,Sweden,GSE,57.7747,11.8704,675294
Piedmont Triad International Airport,Greensboro,United States,GSO,36.097801208496094,-79.93730163574219,943608
Greenville Spartanburg International Airport,Greenville,United States,GSP,34.8956985474,-82.2189025879,1252569
Gustavus Airport,Gustavus,United States,GST,58.4253006,-135.7070007,4535
Groote Eylandt Airport,Groote Eylandt,Australia,GTE,-13.9750003815,136.460006714,4589
Great Falls International Airport,Great Falls,United States,GTF,47.48199844,-111.3710022,107508
Jalaluddin Airport,Gorontalo,Indonesia,GTO,0.63711899519,122.849998474,1697724
Golden Triangle Regional Airport,Columbus Mississippi,United States,GTR,33.450298309299995,-88.5914001465,200116
La Aurora Airport,Guatemala City,Guatemala,GUA,14.5833,-90.527496,14326071
Gunnison Crested Butte Regional Airport,Gunnison,United States,GUC,38.53390121,-106.9329987,111917
Antonio B. Won Pat International Airport,Agana,Guam,GUM,13.4834003448,144.796005249,130036
Gurney Airport,Gurney,Papua New Guinea,GUR,-10.3114995956,150.333999634,124080
Atyrau Airport,Atyrau,Kazakhstan,GUW,47.12189865112305,51.8213996887207,500002
Geneva Cointrin International Airport,Geneva,Switzerland,GVA,46.23809814453125,6.108950138092041,5874052
Coronel Altino Machado de Oliveira Airport,Governador Valadares,Brazil,GVR,-18.89520072937,-41.982200622559,1261209
Gwadar International Airport,Gwadar,Pakistan,GWD,25.233299255371094,62.329498291015625,425713
Gwalior Airport,Gwalior,India,GWL,26.29330062866211,78.22779846191406,9124870
Westerland Sylt Airport,Westerland,Germany,GWT,54.9132003784,8.34047031403,436803
Sayun International Airport,Sayun Intl,Yemen,GXF,15.9660997391,48.78829956049999,541229
Gannan Xiahe Airport,Xiahe city,China,GXH,34.8105,102.6447,1624832
Capitán de Av. Emilio Beltrán Airport,Guayaramerín,Bolivia,GYA,-10.820599556,-65.3455963135,186654
Heydar Aliyev International Airport,Baku,Azerbaijan,GYD,40.46749877929688,50.04669952392578,4319753
José Joaquín de Olmedo International Airport,Guayaquil,Ecuador,GYE,-2.15741991997,-79.88359832760001,6130720
Santa Genoveva Airport,Goiania,Brazil,GYN,-16.631999969482422,-49.220699310302734,2666468
Guangyuan Airport,Guangyuan,China,GYS,32.3911018371582,105.7020034790039,3724982
Nusatupe Airport,Gizo,Solomon Islands,GZO,-8.09778022766,156.863998413,64651
Gazipaşa Airport,Alanya,Turkey,GZP,36.299217,32.300598,588491
Gaziantep International Airport,Gaziantep,Turkey,GZT,36.9472007751,37.4786987305,3607949
Hasvik Airport,Hasvik,Norway,HAA,70.486701965332,22.139699935913,10147
Hachijojima Airport,Hachijojima,Japan,HAC,33.1150016785,139.785995483,2404
Halmstad Airport,Halmstad,Sweden,HAD,56.69110107421875,12.820199966430664,276331
Prince Said Ibrahim International Airport,Moroni,Comoros,HAH,-11.5337,43.2719,737684
Hannover Airport,Hannover,Germany,HAJ,52.461101532,9.68507957458,3452942
Haikou Meilan International Airport,Haikou,China,HAK,19.93490028381348,110.45899963378906,9758740
Hamburg Airport,Hamburg,Germany,HAM,53.630401611328,9.9882297515869,5161249
Noi Bai International Airport,Hanoi,Vietnam,HAN,21.221200942993164,105.80699920654295,30706615
Hanimaadhoo Airport,Haa Dhaalu Atoll,Maldives,HAQ,6.744229793548584,73.17050170898438,66295
Ha'il Airport,Hail,Saudi Arabia,HAS,27.437901,41.686298,802760
Haugesund Airport,Haugesund,Norway,HAU,59.34529876709,5.2083601951599,102134
José Martí International Airport,Havana,Cuba,HAV,22.989200592041016,-82.40910339355469,3191290
Hobart International Airport,Hobart,Australia,HBA,-42.836101532,147.509994507,77496
Borg El Arab International Airport,Alexandria,Egypt,HBE,30.917699813842773,29.696399688720703,14098469
Hubli Airport,Hubli,India,HBX,15.361700058,75.08489990230001,9403921
Holy Cross Airport,Holy Cross,United States,HCR,62.18830108642578,-159.77499389648438,566
Heringsdorf Airport,Heringsdorf,Germany,HDF,53.8787002563,14.152299881,383255
Handan Airport,Handan,China,HDG,36.5258333333,114.425555556,9026373
Hamadan Airport,Hamadan,Iran,HDM,34.86920166015625,48.5525016784668,1091736
Yampa Valley Airport,Hayden,United States,HDN,40.48120117,-107.2180023,94481
Hoedspruit Air Force Base Airport,Hoedspruit,South Africa,HDS,-24.3686008453,31.0487003326,2049006
Hat Yai International Airport,Hat Yai,Thailand,HDY,6.93320989609,100.392997742,1432391
Herat Airport,Herat,Afghanistan,HEA,34.209999084472656,62.22829818725586,3746173
Heho Airport,Heho,Burma,HEH,20.746999740600582,96.79199981689452,3515288
Heihe Airport,Heihe,China,HEK,50.1716209371,127.308883667,862685
Helsinki Vantaa Airport,Helsinki,Finland,HEL,60.317199707031,24.963300704956,3237729
Heraklion International Nikos Kazantzakis Airport,Heraklion,Greece,HER,35.3396987915,25.1802997589,193446
Baita International Airport,Hohhot,China,HET,40.851398,111.823997,10294392
Haifa International Airport,Haifa,Israel,HFA,32.80939865112305,35.04309844970703,2385372
Hefei Luogang International Airport,Hefei,China,HFE,31.780000686645508,117.2979965209961,17059985
Hagfors Airport,Hagfors,Sweden,HFS,60.02009963989258,13.578900337219238,184588
Hammerfest Airport,Hammerfest,Norway,HFT,70.679702758789,23.668600082397,29922
Egal International Airport,Hargeisa,Somalia,HGA,9.518170356750488,44.08879852294922,2118142
Hangzhou Xiaoshan International Airport,Hangzhou,China,HGH,30.22949981689453,120.43399810791016,24457884
Mae Hong Son Airport,Mae Hong Son,Thailand,HGN,19.301300048828125,97.97579956054688,628008
Hagerstown Regional Richard A Henson Field,Hagerstown,United States,HGR,39.707901,-77.72949982,215553
Mount Hagen Kagamuga Airport,Mount Hagen,Papua New Guinea,HGU,-5.826789855957031,144.29600524902344,1504056
Hilton Head Airport,Hilton Head Island,United States,HHH,32.2243995667,-80.6975021362,135564
Frankfurt-Hahn Airport,Hahn,Germany,HHN,49.9487,7.26389,2257942
Lianshui Airport,Huai An,China,HIA,33.7908333333,119.125,7255680
Range Regional Airport,Hibbing,United States,HIB,47.38660049,-92.83899689,75988
Horn Island Airport,Horn Island,Australia,HID,-10.586400032,142.289993286,8647
Hiroshima Airport,Hiroshima,Japan,HIJ,34.4361000061,132.919006348,1498319
Sacheon Air Base/Airport,Sacheon,South Korea,HIN,35.088591,128.071747,879188
Honiara International Airport,Honiara,Solomon Islands,HIR,-9.4280004501343,160.05499267578,297494
Zhijiang Airport,Zhijiang,China,HJJ,27.4411111111,109.7,2210656
Khajuraho Airport,Khajuraho,India,HJR,24.817199707,79.91860198970001,13350159
Hakodate Airport,Hakodate,Japan,HKD,41.7700004578,140.822006226,820918
Hong Kong International Airport,Hong Kong,Hong Kong,HKG,22.308901,113.915001,28387109
Hokitika Airfield,Hokitika,New Zealand,HKK,-42.713600158691406,170.98500061035156,38160
Kimbe Airport,Hoskins,Papua New Guinea,HKN,-5.462170124053955,150.40499877929688,295650
Phuket International Airport,Phuket,Thailand,HKT,8.1132,98.316902,2906118
Lanseria Airport,Johannesburg,South Africa,HLA,-25.9384994507,27.9260997772,822334
Dongshan Airport,Hailar,China,HLD,49.2050018311,119.824996948,932480
Ulanhot Airport,Ulanhot,China,HLH,46.195333,122.008333,2896266
Helena Regional Airport,Helena,United States,HLN,46.6068000793457,-111.98300170898438,100955
Hamilton International Airport,Hamilton,New Zealand,HLZ,-37.8666992188,175.332000732,212713
Khanty Mansiysk Airport,Khanty-Mansiysk,Russia,HMA,61.02849960327149,69.08609771728516,188705
Sohag International Airport,Sohag,Egypt,HMB,26.342778,31.742778,5486614
Oued Irara Airport,Hassi Messaoud,Algeria,HME,31.6730003357,6.140439987180001,306308
Hami Airport,Hami,China,HMI,42.8414,93.669197,683970
General Ignacio P. Garcia International Airport,Hermosillo,Mexico,HMO,29.095899581900003,-111.047996521,1755451
Hemavan Airport,Hemavan,Sweden,HMV,65.80609893798828,15.082799911499023,17200
Hanamaki Airport,Hanamaki,Japan,HNA,39.4286003112793,141.13499450683594,862344
Tokyo Haneda International Airport,Tokyo,Japan,HND,35.552299,139.779999,22167718
Hoonah Airport,Hoonah,United States,HNH,58.0961,-135.410111,4449
Daniel K Inouye International Airport,Honolulu,United States,HNL,21.32062,-157.924228,722206
Hana Airport,Hana,United States,HNM,20.79560089111328,-156.01400756835938,34313
Haines Airport,Haines,United States,HNS,59.24380111694336,-135.5240020751953,15259
Lea County Regional Airport,Hobbs,United States,HOB,32.6875,-103.2170029,142640
Hodeidah International Airport,Hodeidah,Yemen,HOD,14.753000259399414,42.97629928588867,2327522
Ban Huoeisay Airport,Huay Xai,Laos,HOE,20.2572994232,100.43699646,460740
Al Ahsa Airport,Al-ahsa,Saudi Arabia,HOF,25.28529930114746,49.485198974609375,460078
Frank Pais International Airport,Holguin,Cuba,HOG,20.785600662231445,-76.31510162353516,1195940
Hao Airport,Hao Island,French Polynesia,HOI,-18.074800491333008,-140.9459991455078,1939
Homer Airport,Homer,United States,HOM,59.645599365234375,-151.4770050048828,14706
Huron Regional Airport,Huron,United States,HON,44.38520050048828,-98.22850036621094,152858
Horta Airport,Horta,Portugal,HOR,38.519901275634766,-28.715900421142575,16737
Memorial Field,Hot Springs,United States,HOT,34.47800064086914,-93.09619903564452,303794
William P Hobby Airport,Houston,United States,HOU,29.64539909,-95.27890015,1468792
"Ørsta-Volda Airport, Hovden",Orsta-Volda,Norway,HOV,62.180000305176,6.0741000175476,61381
Hooper Bay Airport,Hooper Bay,United States,HPB,61.52389908,-166.1470032,757
Cat Bi International Airport,Haiphong,Vietnam,HPH,20.81940078735352,106.7249984741211,2403297
Westchester County Airport,White Plains,United States,HPN,41.06700134277344,-73.70760345458984,1190978
Taiping Airport,Harbin,China,HRB,45.6234016418457,126.25,25869682
Robert Gabriel Mugabe International Airport,Harare,Zimbabwe,HRE,-17.931801,31.0928,9415499
Hurghada International Airport,Hurghada,Egypt,HRG,27.178300857543945,33.799400329589844,3719803
Mattala Rajapaksa International Airport,Mattala,Sri Lanka,HRI,6.284467,81.124128,1213015
Kharkiv International Airport,Kharkov,Ukraine,HRK,49.924800872802734,36.290000915527344,3609797
Valley International Airport,Harlingen,United States,HRL,26.228500366210938,-97.65440368652344,442517
Hassi R'Mel Airport,Tilrempt,Algeria,HRM,32.93040084838867,3.311539888381958,538117
Boone County Airport,Harrison,United States,HRO,36.26150131225586,-93.15470123291016,231635
Saga Airport,Saga,Japan,HSG,33.149700164799995,130.302001953,480461
Huslia Airport,Huslia,United States,HSL,65.69789886,-156.3509979,275
Zhoushan Airport,Zhoushan,China,HSN,29.9342002869,122.361999512,1621232
Huntsville International Carl T Jones Field,Huntsville,United States,HSV,34.637199401855,-86.775100708008,837504
Chita-Kadala Airport,Chita,Russia,HTA,52.026299,113.306,677611
Hamilton Island Airport,Hamilton Island,Australia,HTI,-20.3581008911,148.95199585,43276
Hotan Airport,Hotan,China,HTN,37.03850173950195,79.86489868164062,2413391
Tri-State/Milton J. Ferguson Field,Huntington,United States,HTS,38.36669922,-82.55799866,325718
Hatay Airport,Hatay,Turkey,HTY,36.36277771,36.282222747800006,5138237
Huahine-Fare Airport,Huahine Island,French Polynesia,HUH,-16.68720054626465,-151.02200317382812,26762
Phu Bai Airport,Hue,Vietnam,HUI,16.401500701899998,107.70300293,906289
Hualien Airport,Hualien,Taiwan,HUN,24.023099899291992,121.61799621582033,789734
Hughes Airport,Hughes,United States,HUS,66.04109955,-154.2630005,116
Alferez Fap David Figueroa Fernandini Airport,Huánuco,Peru,HUU,-9.878809928894045,-76.20480346679688,763226
Bahías de Huatulco International Airport,Huatulco,Mexico,HUX,15.7753,-96.262604,667160
Humberside Airport,Humberside,United Kingdom,HUY,53.57440185546875,-0.350832998752594,395579
Hervey Bay Airport,Hervey Bay,Australia,HVB,-25.3188991547,152.880004883,90374
Khovd Airport,Khovd,Mongolia,HVD,47.9541015625,91.6281967163086,119173
Valan Airport,Honningsvag,Norway,HVG,71.009696960449,25.983600616455,6567
Tweed New Haven Airport,New Haven,United States,HVN,41.26369858,-72.88680267,233666
Havre City County Airport,Havre,United States,HVR,48.54299927,-109.762001,38864
Barnstable Municipal Boardman Polando Field,Barnstable,United States,HYA,41.66930008,-70.28040314,208637
Rajiv Gandhi International Airport,Hyderabad,India,HYD,17.2313175201,78.4298553467,58874620
Hydaburg Seaplane Base,Hydaburg,United States,HYG,55.206298828125,-132.8280029296875,3356
Huangyan Luqiao Airport,Huangyan,China,HYN,28.56220054626465,121.4290008544922,1769506
Liping Airport,Liping,China,HZH,26.32217,109.1499,1928797
Igarka Airport,Igarka,Russia,IAA,67.43720245361328,86.62190246582031,47318
Washington Dulles International Airport,Washington,United States,IAD,38.94449997,-77.45580292,5488433
Niagara Falls International Airport,Niagara Falls,United States,IAG,43.1072998046875,-78.94619750976562,453701
George Bush Intercontinental Houston Airport,Houston,United States,IAH,29.984399795532227,-95.34140014648438,6105580
In Aménas Airport,Zarzaitine,Algeria,IAM,28.0515,9.64291,100190
Bob Baker Memorial Airport,Kiana,United States,IAN,66.9759979248,-160.43699646,568
Siargao Airport,Siargao,Philippines,IAO,9.8591,126.014,407954
Tunoshna Airport,Yaroslavl,Russia,IAR,57.56069946289063,40.15739822387695,1133392
Iaşi Airport,Iasi,Romania,IAS,47.17850112915039,27.6205997467041,2233172
Ibadan Airport,Ibadan,Nigeria,IBA,7.362460136413574,3.97832989692688,5544082
Perales Airport,Ibague,Colombia,IBE,4.42161,-75.1333,1203176
Hyakuri Airport,Ibaraki,Japan,IBR,36.181098938,140.414993286,1531455
Ibiza Airport,Ibiza,Spain,IBZ,38.8728981018,1.3731199502899998,2148198
Cicia Airport,Cicia,Fiji,ICI,-17.7432994843,-179.341995239,11293
Incheon International Airport,Seoul,South Korea,ICN,37.46910095214844,126.45099639892578,35524021
Wichita Eisenhower National Airport,Wichita,United States,ICT,37.649899,-97.433098,1028343
Idaho Falls Regional Airport,Idaho Falls,United States,IDA,43.514599,-112.070999,207055
Devi Ahilyabai Holkar Airport,Indore,India,IDR,22.7217998505,75.8011016846,30085566
Kiev Zhuliany International Airport,Kiev,Ukraine,IEV,50.40194,30.45194,3259557
Ísafjörður Airport,Isafjordur,Iceland,IFJ,66.05809783935547,-23.135299682617188,42134
Esfahan Shahid Beheshti International Airport,Esfahan,Iran,IFN,32.75080108642578,51.86130142211914,4872928
Ivano-Frankivsk International Airport,Ivano-Frankivsk,Ukraine,IFO,48.88420104980469,24.68610000610352,1174430
Inagua Airport,Matthew Town,Bahamas,IGA,20.975000381469727,-73.66690063476562,1111585
Iğdır Airport,Igdir,Turkey,IGD,39.9766273499,43.8766479492,605440
Cataratas Del Iguazú International Airport,Iguazu Falls,Argentina,IGR,-25.737301,-54.4734,1326361
Cataratas International Airport,Foz Do Iguacu,Brazil,IGU,-25.60027885437012,-54.48500061035156,2041775
Ilam Airport,Ilam,Iran,IIL,33.58660125732422,46.40480041503906,3466852
Izhevsk Airport,Izhevsk,Russia,IJK,56.82809829711914,53.45750045776367,1444860
Imam Khomeini International Airport,Tehran,Iran,IKA,35.416099548339844,51.15219879150391,6684007
Iki Airport,Iki,Japan,IKI,33.7490005493,129.785003662,583082
Nikolski Air Station,Nikolski,United States,IKO,52.94160079956055,-168.8489990234375,970
Tiksi Airport,Tiksi,Russia,IKS,71.697700500488,128.90299987793,6547
Irkutsk Airport,Irkutsk,Russia,IKT,52.268001556396,104.38899993896,1829258
Lleida-Alguaire Airport,Lleida,Spain,ILD,41.728185,0.535023,192915
New Castle Airport,Wilmington,United States,ILG,39.67869949,-75.60649872,488970
Iliamna Airport,Iliamna,United States,ILI,59.75439835,-154.9109955,2218
Wilmington International Airport,Wilmington,United States,ILM,34.270599365234375,-77.90260314941406,186562
Iloilo International Airport,Iloilo,Philippines,ILO,10.833017,122.493358,2559843
Île des Pins Airport,Île des Pins,New Caledonia,ILP,-22.58889961242676,167.45599365234375,13096
Ilorin International Airport,Ilorin,Nigeria,ILR,8.440210342407227,4.493919849395752,6966327
Islay Airport,Islay,United Kingdom,ILY,55.68190002441406,-6.256669998168945,96400
Imphal Airport,Imphal,India,IMF,24.7600002289,93.896697998,4824843
Prefeito Renato Moreira Airport,Imperatriz,Brazil,IMP,-5.53129,-47.459999,1148789
Ford Airport,Iron Mountain,United States,IMT,45.8184013367,-88.1145019531,170321
Indianapolis International Airport,Indianapolis,United States,IND,39.7173,-86.294403,1973913
Inhambane Airport,Inhambane,Mozambique,INH,-23.876399993896484,35.40850067138672,904762
Falls International Airport,International Falls,United States,INL,48.566200256347656,-93.4030990600586,62485
Innsbruck Airport,Innsbruck,Austria,INN,47.260201,11.344,450911
Nauru International Airport,Nauru,Nauru,INU,-0.547458,166.919006,10244
Inverness Airport,Inverness,United Kingdom,INV,57.54249954223633,-4.047500133514404,249880
In Salah Airport,In Salah,Algeria,INZ,27.2509994507,2.51202011108,81850
Ioannina Airport,Ioannina,Greece,IOA,39.6963996887207,20.82250022888184,153754
