name,city,country,IATA,latitude,longitude,population
Aalborg Airport,Aalborg,Denmark,AAL,57.0927589138,9.84924316406,543700.5259242682
Aarhus Airport,Aarhus,Denmark,AAR,56.2999992371,10.619000434899998,440245.8652836305
Aberdeen Dyce Airport,Aberdeen,United Kingdom,ABZ,57.20190048217773,-2.197779893875122,632085.6425626521
St Gallen Altenrhein Airport,Altenrhein,Switzerland,ACH,47.4850006104,9.560770034789998,341918.72487103305
Alderney Airport,Alderney,Guernsey,ACI,49.706104,-2.21472,227435.0986861285
Adana Airport,Adana,Turkey,ADA,36.9822006226,35.2803993225,5179925.381971508
Adnan Menderes International Airport,Izmir,Turkey,ADB,38.2924003601,27.156999588,2343630.1084453305
Adıyaman Airport,Adiyaman,Turkey,ADF,37.7313995361,38.4688987732,1729676.3591202789
Ålesund Airport,Alesund,Norway,AES,62.5625,6.119699954986572,109537.72812280038
Augsburg Airport,Augsburg,Germany,AGB,48.425278,10.931667,184770.19035343596
Agen-La Garenne Airport,Agen,France,AGF,44.17470169067383,0.5905560255050659,314929.8804496409
Ängelholm-Helsingborg Airport,Ängelholm,Sweden,AGH,56.29610061645508,12.847100257873535,185272.6954086297
Málaga Airport,Malaga,Spain,AGP,36.67490005493164,-4.499110221862793,7472988.402124663
Alghero-Fertilia Airport,Alghero,Italy,AHO,40.632099,8.29077,392545.0897281294
Ajaccio-Napoléon Bonaparte Airport,Ajaccio,France,AJA,41.92359924316406,8.8029203414917,256652.0895775677
Ağrı Airport,Agri,Turkey,AJI,39.654541015625,43.025978088378906,560978.4321230943
Arvidsjaur Airport,Arvidsjaur,Sweden,AJR,65.59030151367188,19.28190040588379,51859.89150608409
Alicante International Airport,Alicante,Spain,ALC,38.28219985961914,-0.5581560134887695,3985071.2660923526
Alta Airport,Alta,Norway,ALF,69.976097106934,23.371700286865,24608.29369403497
Amsterdam Airport Schiphol,Amsterdam,Netherlands,AMS,52.308601,4.76389,12498155.011021128
Angoulême-Brie-Champniers Airport,Angouleme,France,ANG,45.72919845581055,0.2214560061693191,269636.0482208253
Antwerp International Airport (Deurne),Antwerp,Belgium,ANR,51.1893997192,4.46027994156,201040.9260561661
Andøya Airport,Andoya,Norway,ANX,69.292503356934,16.144199371338,23147.33027617173
Anadolu Airport,Eskissehir,Turkey,AOE,39.809898,30.5194,465323.9975598938
Ancona Falconara Airport,Ancona,Italy,AOI,43.616299,13.3623,499108.6484006453
Karpathos Airport,Karpathos,Greece,AOK,35.4213981628418,27.145999908447266,46090.569808499786
Stockholm-Arlanda Airport,Stockholm,Sweden,ARN,59.651901245117,17.918600082397,2661080.6088893632
Arad International Airport,Arad,Romania,ARW,46.17660140991211,21.261999130249023,464452.5022617767
Kayseri Erkilet Airport,Kayseri,Turkey,ASR,38.770401001,35.4953994751,1596626.677118911
Eleftherios Venizelos International Airport,Athens,Greece,ATH,37.9364013672,23.9444999695,3227509.3482272825
Aurillac Airport,Aurillac,France,AUR,44.89139938354492,2.4219400882720947,249057.82900340203
Avignon-Caumont Airport,Avignon,France,AVN,43.90729904174805,4.901830196380615,247073.6977791241
Dimokritos Airport,Alexandroupolis,Greece,AXD,40.855899810791016,25.956300735473636,418638.956737776
Antalya International Airport,Antalya,Turkey,AYT,36.898701,30.800501,3037813.2175576226
Batman Airport,Batman,Turkey,BAL,37.9290008545,41.1166000366,1594952.3368364768
Tautii Magheraus Airport,Baia Mare,Romania,BAY,47.65840148925781,23.46999931335449,747323.5105136278
Barcelona International Airport,Barcelona,Spain,BCN,41.2971,2.07846,5148389.916988446
Brindisi – Salento Airport,Brindisi,Italy,BDS,40.6576,17.947001,981337.6515008034
Bardufoss Airport,Bardufoss,Norway,BDU,69.055801391602,18.540399551392,9789.912820760172
Benbecula Airport,Benbecula,United Kingdom,BEB,57.48109817504883,-7.362780094146728,50714.31130600081
Belgrade Nikola Tesla Airport,Belgrade,Serbia,BEG,44.8184013367,20.3090991974,4943007.878491447
Brest Bretagne Airport,Brest,France,BES,48.447898864746094,-4.418540000915527,451587.2691769408
Belfast International Airport,Belfast,United Kingdom,BFS,54.6575012207,-6.21582984924,830630.5853770914
Bingöl Çeltiksuyu Airport,Bingol,Turkey,BGG,38.8592605591,40.5959625244,875459.7380006331
Bergen Airport Flesland,Bergen,Norway,BGO,60.29339981,5.218140125,532094.0431616876
Il Caravaggio International Airport,Bergamo,Italy,BGY,45.673901,9.70417,4487514.868058723
George Best Belfast City Airport,Belfast,United Kingdom,BHD,54.61809921264648,-5.872499942779541,725581.6180400236
Birmingham International Airport,Birmingham,United Kingdom,BHX,52.4538993835,-1.74802994728,4865361.736273929
Bastia-Poretta Airport,Bastia,France,BIA,42.55270004272461,9.48373031616211,501051.9337969818
Bilbao Airport,Bilbao,Spain,BIO,43.30110168457031,-2.9106099605560303,1937302.4193806783
Biarritz-Anglet-Bayonne Airport,Biarritz-bayonne,France,BIQ,43.4683333,-1.5311111,1030100.5151779564
Båtsfjord Airport,Batsfjord,Norway,BJF,70.60050201416,29.691400527954,64938.3766952366
Milas Bodrum International Airport,Bodrum,Turkey,BJV,37.25059890749999,27.6643009186,910071.1612791652
Badajoz Airport,Badajoz,Spain,BJZ,38.891300201416016,-6.8213300704956055,359080.1940405778
Borlange Airport,Borlange,Sweden,BLE,60.422000885009766,15.515199661254885,136921.69359700143
Blackpool International Airport,Blackpool,United Kingdom,BLK,53.77170181274414,-3.0286099910736084,523254.89424852177
Billund Airport,Billund,Denmark,BLL,55.7402992249,9.15178012848,1624445.4147111154
Bologna Guglielmo Marconi Airport,Bologna,Italy,BLQ,44.5354,11.2887,2928529.951760764
Stockholm-Bromma Airport,Stockholm,Sweden,BMA,59.354400634765625,17.941699981689453,506689.82597504
Brønnøysund Airport,Bronnoysund,Norway,BNN,65.461097717285,12.217499732971,32444.404724814893
Banja Luka International Airport,Banja Luka,Bosnia and Herzegovina,BNX,44.94139862060547,17.297500610351562,400821.9308081627
Bordeaux-Mérignac Airport,Bordeaux,France,BOD,44.8283004761,-0.715556025505,2735864.9398810454
Bournemouth Airport,Bournemouth,United Kingdom,BOH,50.77999877929688,-1.8424999713897705,685927.907393852
Burgas Airport,Bourgas,Bulgaria,BOJ,42.56959915161133,27.515199661254883,2774839.831857306
Bodø Airport,Bodo,Norway,BOO,67.26920318603516,14.365300178527832,71987.85555585494
Bremen Airport,Bremen,Germany,BRE,53.0475006104,8.78666973114,2576350.439639456
Bari Karol Wojtyła Airport,Bari,Italy,BRI,41.138901,16.760599,2546332.575177045
Bern Belp Airport,Bern,Switzerland,BRN,46.914100647,7.497149944309999,792370.9103549417
Brno-Tuřany Airport,Brno,Czech Republic,BRQ,49.15129852294922,16.694400787353516,437737.45919382
Barra Airport,Barra,United Kingdom,BRR,57.0228,-7.44306,49850.509853682335
Bristol Airport,Bristol,United Kingdom,BRS,51.382702,-2.71909,3204335.052155592
Brussels Airport,Brussels,Belgium,BRU,50.9014015198,4.48443984985,7692796.343943614
EuroAirport Basel-Mulhouse-Freiburg Airport,Mulhouse,France,BSL,47.59,7.5291667,3134357.581438463
M. R. Štefánik Airport,Bratislava,Slovakia,BTS,48.17020034790039,17.21269989013672,1442676.878418645
Budapest Liszt Ferenc International Airport,Budapest,Hungary,BUD,47.42976,19.261093,6264946.065942714
Paris Beauvais Tillé Airport,Beauvais,France,BVA,49.45439910888672,2.1127800941467285,2228711.1557010016
Brive Souillac Airport,Brive,France,BVE,45.039722,1.485556,451130.5258940574
Berlevåg Airport,Berlevag,Norway,BVG,70.871399,29.034201,29184.94523630356
Bol Airport,Brac,Croatia,BWK,43.28570175170898,16.67970085144043,143814.84741081606
Bydgoszcz Ignacy Jan Paderewski Airport,Bydgoszcz,Poland,BZG,53.0968017578,17.9776992798,765053.1883884212
Bolzano Airport,Bolzano,Italy,BZO,46.460201,11.3264,237761.28876667013
Béziers-Vias Airport,Beziers,France,BZR,43.32350158691406,3.353899955749512,540569.7822851315
Cagliari Elmas Airport,Cagliari,Italy,CAG,39.251499,9.05428,557434.6778171413
Campbeltown Airport,Campbeltown,United Kingdom,CAL,55.437198638916016,-5.686389923095703,139652.22015832047
Carcassonne Airport,Carcassonne,France,CCF,43.21599960327149,2.3063199520111084,638591.4103871565
Charles de Gaulle International Airport,Paris,France,CDG,49.012798,2.55,10839045.446403593
Hawarden Airport,Hawarden,United Kingdom,CEG,53.1781005859375,-2.977780103683472,275256.9851160626
Clermont-Ferrand Auvergne Airport,Clermont-Ferrand,France,CFE,45.7867012024,3.1691699028,467076.47609902354
Donegal Airport,Dongloe,Ireland,CFN,55.0442008972168,-8.340999603271484,110985.43972268082
Caen-Carpiquet Airport,Caen,France,CFR,49.173301696777344,-0.449999988079071,443694.0912829746
Ioannis Kapodistrias International Airport,Kerkyra/corfu,Greece,CFU,39.601898193359375,19.911699295043945,1176213.12703718
Cologne Bonn Airport,Cologne,Germany,CGN,50.8658981323,7.1427397728,5098720.526795006
Chania International Airport,Chania,Greece,CHQ,35.531700134277344,24.14970016479492,139117.41812773465
Ciampino–G. B. Pastine International Airport,Rome,Italy,CIA,41.7994,12.5949,2110290.542644328
Comiso Airport,Comiso,Italy,CIY,36.994601,14.607182,363719.6507745457
Çanakkale Airport,Canakkale,Turkey,CKZ,40.1376991272,26.4267997742,364435.5253070496
Cluj-Napoca International Airport,Cluj-napoca,Romania,CLJ,46.78519821166992,23.686199188232425,2719194.362453142
Calvi-Sainte-Catherine Airport,Calvi,France,CLY,42.5244444,8.7930556,192816.61342276755
Copenhagen Kastrup Airport,Copenhagen,Denmark,CPH,55.617900848389,12.656000137329,3915321.516049029
Craiova Airport,Craiova,Romania,CRA,44.31809997558594,23.888599395751957,973101.3583913944
Brussels South Charleroi Airport,Charleroi,Belgium,CRL,50.459202,4.45382,5016314.800925821
Catania-Fontanarossa Airport,Catania,Italy,CTA,37.466801,15.0664,2025865.0821023409
Cuneo International Airport,Cuneo,Italy,CUF,44.547001,7.62322,387006.3140374657
Cardiff International Airport,Cardiff,United Kingdom,CWL,51.39670181274414,-3.343329906463623,962907.4361348746
Dubrovnik Airport,Dubrovnik,Croatia,DBV,42.5614013671875,18.268199920654297,2572636.750903183
Castres-Mazamet Airport,Castres,France,DCM,43.55630111694336,2.289180040359497,459104.0913811156
Debrecen International Airport,Debrecen,Hungary,DEB,47.48889923095703,21.61529922485352,586769.9575476404
Dijon-Bourgogne Airport,Dijon,France,DIJ,47.268902,5.09,199706.81138874247
Diyarbakir Airport,Diyabakir,Turkey,DIY,37.893901825,40.2010002136,1617043.579367782
Dole-Tavaux Airport,Dole,France,DLE,47.042686,5.435063,310330.9409234281
Dalaman International Airport,Dalaman,Turkey,DLM,36.7131004333,28.7924995422,854740.627520843
Dundee Airport,Dundee,United Kingdom,DND,56.45249938964844,-3.025830030441284,89212.17218237101
Dnipropetrovsk International Airport,Dnepropetrovsk,Ukraine,DNK,48.357200622558594,35.10060119628906,3875892.1005799607
Dinard-Pleurtuit-Saint-Malo Airport,Dinard,France,DNR,48.58769989013672,-2.0799601078033447,321207.3358127817
Çardak Airport,Denizli,Turkey,DNZ,37.7855987549,29.7012996674,266654.5485408466
Donetsk International Airport,Donetsk,Ukraine,DOK,48.07360076904297,37.73970031738281,3740959.071403217
Deauville-Saint-Gatien Airport,Deauville,France,DOL,49.3652992249,0.154305994511,224159.77375138007
Dresden Airport,Dresden,Germany,DRS,51.1328010559082,13.767200469970703,1491424.562559604
Robin Hood Doncaster Sheffield Airport,"Doncaster, Sheffield",United Kingdom,DSA,53.4805378105,-1.01065635681,565213.7052684186
Dortmund Airport,Dortmund,Germany,DTM,51.51829910279999,7.61223983765,2008905.5921954475
Dublin Airport,Dublin,Ireland,DUB,53.421299,-6.27007,4327970.817869042
Düsseldorf Airport,Duesseldorf,Germany,DUS,51.289501,6.76678,9419250.901316565
San Sebastian Airport,San Sebastian,Spain,EAS,43.35649871826172,-1.7906099557876587,333701.82886570005
Marina Di Campo Airport,Marina Di Campo,Italy,EBA,42.7603,10.2394,298078.42286051763
Esbjerg Airport,Esbjerg,Denmark,EBJ,55.525902,8.5534,223136.865233592
Saint-Étienne-Bouthéon Airport,St-Etienne,France,EBU,45.54059982299805,4.296390056610107,377241.2210786646
Edinburgh Airport,Edinburgh,United Kingdom,EDI,55.95000076293945,-3.372499942779541,2853503.172181112
Balıkesir Körfez Airport,Balikesir Korfez,Turkey,EDO,39.554599762,27.0137996674,261481.02274963245
Kefallinia Airport,Keffallinia,Greece,EFL,38.12009811401367,20.5004997253418,130027.0448007651
Bergerac-Roumanière Airport,Bergerac,France,EGC,44.82529830932617,0.5186110138893127,601612.830039261
Eindhoven Airport,Eindhoven,Netherlands,EIN,51.4500999451,5.37452983856,3071766.201965388
East Midlands Airport,East Midlands,United Kingdom,EMA,52.8311004639,-1.32806003094,3179507.8349122894
Eday Airport,Eday,United Kingdom,EOI,59.19060134887695,-2.7722198963165283,25074.7919996608
Erzincan Airport,Erzincan,Turkey,ERC,39.7102012634,39.5270004272,903422.482765216
Erfurt Airport,Erfurt,Germany,ERF,50.97980117797852,10.958100318908691,483956.9881750188
Erzurum International Airport,Erzurum,Turkey,ERZ,39.9565010071,41.17020034789999,763526.7073081981
Esenboğa International Airport,Ankara,Turkey,ESB,40.1281013489,32.995098114,8161005.472224914
Metz-Nancy-Lorraine Airport,Metz,France,ETZ,48.9821014404,6.25131988525,366431.3890485881
"Harstad/Narvik Airport, Evenes",Harstad/Narvik,Norway,EVE,68.491302490234,16.678100585938,34696.72662481683
Sveg Airport,Sveg,Sweden,EVG,62.04779815673828,14.422900199890137,64419.4624470568
Exeter International Airport,Exeter,United Kingdom,EXT,50.73440170288086,-3.4138898849487305,700459.8860709197
Elazığ Airport,Elazig,Turkey,EZS,38.6068992615,39.2914009094,1343038.193713867
Leonardo da Vinci–Fiumicino Airport,Rome,Italy,FCO,41.8002778,12.2388889,7655450.213765309
Friedrichshafen Airport,Friedrichshafen,Germany,FDH,47.6712989807,9.51148986816,830597.3500848615
Karlsruhe Baden-Baden Airport,Karlsruhe/Baden-Baden,Germany,FKB,48.7793998718,8.08049964905,895262.7241503234
Peretola Airport,Florence,Italy,FLR,43.810001,11.2051,1207757.5557963187
Memmingen Allgau Airport,Memmingen,Germany,FMM,47.9888000488,10.2395000458,1039417.400847828
Münster Osnabrück Airport,Munster,Germany,FMO,52.134601593,7.68483018875,870899.125955608
Madeira Airport,Funchal,Portugal,FNC,32.697899,-16.7745,237307.164418968
Nîmes-Arles-Camargue Airport,Nimes,France,FNI,43.75740051269531,4.4163498878479,246858.8385631861
Frankfurt am Main Airport,Frankfurt,Germany,FRA,50.033333,8.570556,13083168.879119445
Florø Airport,Floro,Norway,FRO,61.583599090576,5.0247201919556,60002.19329960983
Figari Sud-Corse Airport,Figari,France,FSC,41.5005989074707,9.097780227661133,189731.8232782452
Guernsey Airport,Guernsey,Guernsey,GCI,49.435001373291016,-2.601969957351685,917240.5648881549
Gdańsk Lech Wałęsa Airport,Gdansk,Poland,GDN,54.37760162353516,18.46619987487793,4016796.201815404
Gällivare Airport,Gallivare,Sweden,GEV,67.13240051269531,20.814599990844727,70605.68419008168
Gibraltar Airport,Gibraltar,Gibraltar,GIB,36.1511993408,-5.3496599197400005,773848.6133284519
Glasgow International Airport,Glasgow,United Kingdom,GLA,55.8718986511,-4.43306016922,2162501.718671045
Gloucestershire Airport,Golouchestershire,United Kingdom,GLO,51.89419937133789,-2.167220115661621,257363.0309061109
Şanlıurfa GAP Airport,Sanliurfa,Turkey,GNY,37.445663,38.895592,2586635.277570377
Genoa Cristoforo Colombo Airport,Genoa,Italy,GOA,44.4133,8.8375,841197.53729987
Gothenburg-Landvetter Airport,Gothenborg,Sweden,GOT,57.662799835205,12.279800415039,1132214.7170279955
Araxos Airport,Patras,Greece,GPA,38.1511,21.4256,179545.54711741034
Girona Airport,Gerona,Spain,GRO,41.901000977,2.7605500221,1574315.3686888209
Eelde Airport,Groningen,Netherlands,GRQ,53.1197013855,6.57944011688,460139.9150142346
Federico Garcia Lorca Airport,Granada,Spain,GRX,37.18870162963867,-3.777359962463379,476579.4150662182
Graz Airport,Graz,Austria,GRZ,46.9911003112793,15.439599990844728,786326.811142829
Gothenburg City Airport,Gothenborg,Sweden,GSE,57.7747,11.8704,675294.347101674
Geneva Cointrin International Airport,Geneva,Switzerland,GVA,46.23809814453125,6.108950138092041,5874051.80447152
Westerland Sylt Airport,Westerland,Germany,GWT,54.9132003784,8.34047031403,436803.44106148
Gazipaşa Airport,Alanya,Turkey,GZP,36.299217,32.300598,588491.2507256321
Gaziantep International Airport,Gaziantep,Turkey,GZT,36.9472007751,37.4786987305,3607948.902903505
Hasvik Airport,Hasvik,Norway,HAA,70.486701965332,22.139699935913,10146.611848011664
Halmstad Airport,Halmstad,Sweden,HAD,56.69110107421875,12.820199966430664,276330.8516047493
Hannover Airport,Hannover,Germany,HAJ,52.461101532,9.68507957458,3452941.7555801263
Hamburg Airport,Hamburg,Germany,HAM,53.630401611328,9.9882297515869,5161249.4499738
Haugesund Airport,Haugesund,Norway,HAU,59.34529876709,5.2083601951599,102133.69498176636
Heringsdorf Airport,Heringsdorf,Germany,HDF,53.8787002563,14.152299881,383255.1099312395
Helsinki Vantaa Airport,Helsinki,Finland,HEL,60.317199707031,24.963300704956,3237729.499253872
Heraklion International Nikos Kazantzakis Airport,Heraklion,Greece,HER,35.3396987915,25.1802997589,193446.41792506448
Hagfors Airport,Hagfors,Sweden,HFS,60.02009963989258,13.578900337219238,184588.03669607
Hammerfest Airport,Hammerfest,Norway,HFT,70.679702758789,23.668600082397,29921.99539439805
Frankfurt-Hahn Airport,Hahn,Germany,HHN,49.9487,7.26389,2257942.2863971186
Hemavan Airport,Hemavan,Sweden,HMV,65.80609893798828,15.082799911499023,17199.895141251684
"Ørsta-Volda Airport, Hovden",Orsta-Volda,Norway,HOV,62.180000305176,6.0741000175476,61381.00981659564
Kharkiv International Airport,Kharkov,Ukraine,HRK,49.924800872802734,36.290000915527344,3609796.7234792463
Hatay Airport,Hatay,Turkey,HTY,36.36277771,36.282222747800006,5138236.905169747
Humberside Airport,Humberside,United Kingdom,HUY,53.57440185546875,-0.350832998752594,395579.4172116493
Valan Airport,Honningsvag,Norway,HVG,71.009696960449,25.983600616455,6567.423441892698
Iaşi Airport,Iasi,Romania,IAS,47.17850112915039,27.6205997467041,2233171.735689774
Ibiza Airport,Ibiza,Spain,IBZ,38.8728981018,1.3731199502899998,2148198.2751295604
Kiev Zhuliany International Airport,Kiev,Ukraine,IEV,50.40194,30.45194,3259557.059135359
Ivano-Frankivsk International Airport,Ivano-Frankivsk,Ukraine,IFO,48.88420104980469,24.68610000610352,1174430.2308854407
Iğdır Airport,Igdir,Turkey,IGD,39.9766273499,43.8766479492,605439.6473542645
Lleida-Alguaire Airport,Lleida,Spain,ILD,41.728185,0.535023,192914.7991576046
Islay Airport,Islay,United Kingdom,ILY,55.68190002441406,-6.256669998168945,96400.40569826572
Innsbruck Airport,Innsbruck,Austria,INN,47.260201,11.344,450910.9290990624
Inverness Airport,Inverness,United Kingdom,INV,57.54249954223633,-4.047500133514404,249880.2362047609
Ioannina Airport,Ioannina,Greece,IOA,39.6963996887207,20.82250022888184,153754.31458882082
Isle of Man Airport,Isle Of Man,Isle of Man,IOM,54.08330154418945,-4.623889923095703,867435.7405887784
St. Mary's Airport,ST MARY\'S,United Kingdom,ISC,49.91329956054688,-6.291669845581055,153397.90170841906
Ivalo Airport,Ivalo,Finland,IVL,68.607299804688,27.405300140381,42285.69749224697
Jersey Airport,Jersey,Jersey,JER,49.20790100097656,-2.195509910583496,1485424.1628844943
Ikaria Airport,Ikaria,Greece,JIK,37.6827011108,26.3470993042,276976.0400486171
Jönköping Airport,Joenkoeping,Sweden,JKG,57.757598876953125,14.068699836730955,149655.81165761914
Chios Island National Airport,Chios,Greece,JKH,38.34320068359375,26.140600204467773,444366.05042443576
Kalymnos Airport,Kalymnos,Greece,JKL,36.9632987976,26.9405994415,296598.7728813692
Mikonos Airport,Mykonos,Greece,JMK,37.43510055541992,25.348100662231445,552634.7893377619
Naxos Airport,Cyclades Islands,Greece,JNX,37.0811004639,25.3680992126,161763.1999685054
Joensuu Airport,Joensuu,Finland,JOE,62.662899017334,29.607500076294,256935.2636892251
Sitia Airport,Sitia,Greece,JSH,35.21609878540039,26.101299285888672,47293.954053975314
Skiathos Island National Airport,Skiathos,Greece,JSI,39.17710113525391,23.503700256347656,161983.2895949773
Syros Airport,Syros Island,Greece,JSY,37.4227981567,24.9508991241,164652.95992358556
Santorini Airport,Thira,Greece,JTR,36.399200439453125,25.47929954528809,82651.2449121035
Astypalaia Airport,Astypalaia,Greece,JTY,36.5798988342,26.3757991791,169865.55380957597
Jyvaskyla Airport,Jyvaskyla,Finland,JYV,62.399501800537,25.678300857544,182250.5165323295
Kajaani Airport,Kajaani,Finland,KAJ,64.285499572754,27.692399978638,142631.0769086168
Kuusamo Airport,Kuusamo,Finland,KAO,65.987602233887,29.239400863647,87560.28899575927
Boryspil International Airport,Kiev,Ukraine,KBP,50.345001220703125,30.894699096679688,7826656.533948344
Kahramanmaraş Airport,Kahramanmaras,Turkey,KCM,37.5388259888,36.9535217285,2556362.1808009865
Cengiz Topel Airport,Topel,Turkey,KCO,40.73500061035156,30.08329963684082,524312.3005302721
Kemi-Tornio Airport,Kemi,Finland,KEM,65.778701782227,24.582099914551,109916.34111087448
Kos Airport,Kos,Greece,KGS,36.79330062866211,27.091699600219727,907735.1876452456
Kristianstad Airport,Kristianstad,Sweden,KID,55.92169952392578,14.08549976348877,109468.78988722528
Kerry Airport,Kerry,Ireland,KIR,52.18090057373047,-9.52377986907959,110596.01233180294
Kithira Airport,Kithira,Greece,KIT,36.2742996216,23.0170001984,97513.5963350777
Chişinău International Airport,Chisinau,Moldova,KIV,46.92770004272461,28.93099975585937,5395799.948155632
Kirkenes Airport (Høybuktmoen),Kirkenes,Norway,KKN,69.725799560547,29.891300201416,112782.58002498426
Kalmar Airport,Kalkmar,Sweden,KLR,56.68550109863281,16.287599563598633,95677.71171290542
Klagenfurt Airport,Klagenfurt,Austria,KLU,46.642502,14.3377,308604.3106671528
Kalamata Airport,Kalamata,Greece,KLX,37.06829833984375,22.02549934387207,255872.6266278289
Kirkwall Airport,Kirkwall,United Kingdom,KOI,58.957801818847656,-2.9049999713897705,131082.63218643068
Kokkola-Pietarsaari Airport,Kruunupyy,Finland,KOK,63.721199035645,23.143100738525,191754.37834466965
Kramfors Sollefteå Airport,Kramfors,Sweden,KRF,63.04859924316406,17.76889991760254,81680.86954927053
Kraków John Paul II International Airport,Krakow,Poland,KRK,50.077702,19.7848,6796576.7831519535
Kiruna Airport,Kiruna,Sweden,KRN,67.821998596191,20.336799621582,27888.8128309696
Karup Airport,Karup,Denmark,KRP,56.29750061035156,9.124629974365234,125164.62354608314
Kristiansand Airport,Kristiansand,Norway,KRS,58.204201,8.08537,231417.67085483525
Košice Airport,Kosice,Slovakia,KSC,48.66310119628906,21.241100311279297,931562.6831396084
Karlstad Airport,Karlstad,Sweden,KSD,59.4446983337,13.3374004364,137267.24416895938
Kassel-Calden Airport,Kassel,Germany,KSF,51.417273,9.384967,312400.70140163763
Kasos Airport,Kasos,Greece,KSJ,35.4213981628,26.9099998474,40217.19173849
Kastoria National Airport,Kastoria,Greece,KSO,40.4463005066,21.2821998596,222825.27098846235
Kristiansund Airport (Kvernberget),Kristiansund,Norway,KSU,63.111801147461,7.824520111084,88121.9877499449
Kars Airport,Kars,Turkey,KSY,40.562198638916016,43.1150016784668,698282.4539544643
Kittilä Airport,Kittila,Finland,KTT,67.700996398926,24.846799850464,40040.54744175603
Katowice International Airport,Katowice,Poland,KTW,50.4743,19.08,3839662.726646837
Kaunas International Airport,Kaunas,Lithuania,KUN,54.96390151977539,24.084800720214844,1347333.7540341313
Kuopio Airport,Kuopio,Finland,KUO,63.007099151611,27.797800064087,140062.3628354696
Alexander the Great International Airport,Kavala,Greece,KVA,40.91329956054688,24.619199752807617,344500.6670086545
Konya Airport,Konya,Turkey,KYA,37.979,32.561901,778410.9313914793
Kastelorizo Airport,Kastelorizo,Greece,KZS,36.1417007446,29.576400756799995,102064.3347978595
Lannion-Côte de Granit Airport,Lannion,France,LAI,48.754398,-3.47166,185232.5813828325
Leeds Bradford Airport,Leeds,United Kingdom,LBA,53.86589813232422,-1.6605700254440308,2316652.070364594
Lübeck Blankensee Airport,Luebeck,Germany,LBC,53.8054008484,10.7192001343,417631.6936452384
A Coruña Airport,La Coruna,Spain,LCG,43.302101,-8.37726,783256.270599916
London City Airport,London,United Kingdom,LCY,51.505299,0.055278,1698544.501641092
Tarbes-Lourdes-Pyrénées Airport,Tarbes,France,LDE,43.1786994934082,-0.0064389999024569,510577.3497416964
City of Derry Airport,Londonderry,United Kingdom,LDY,55.04280090332031,-7.161109924316406,179728.35766907738
Le Havre Octeville Airport,Le Havre,France,LEH,49.53390121459961,0.0880559980869293,241198.97501381216
Almería International Airport,Almeria,Spain,LEI,36.84389877319336,-2.3701000213623047,1546931.493522924
Leipzig/Halle Airport,Leipzig,Germany,LEJ,51.423889,12.236389,1871262.0958050345
Leon Airport,Leon,Spain,LEN,42.5890007019043,-5.65556001663208,298833.0320842996
Land's End Airport,Land's End,United Kingdom,LEQ,50.102798,-5.67056,103424.37862711564
Liège Airport,Liege,Belgium,LGG,50.63740158081055,5.443220138549805,626258.1305220983
London Gatwick Airport,London,United Kingdom,LGW,51.148102,-0.190278,6600194.630782393
London Heathrow Airport,London,United Kingdom,LHR,51.4706,-0.461941,8336719.005630072
Limoges Airport,Limoges,France,LIG,45.86280059814453,1.1794400215148926,744502.6437166019
Lille-Lesquin Airport,Lille,France,LIL,50.563332,3.086886,1773506.4510905968
Milano Linate Airport,Milan,Italy,LIN,45.445099,9.27674,1815335.4609044336
Humberto Delgado Airport (Lisbon Portela Airport),Lisbon,Portugal,LIS,38.7813,-9.13592,5658493.326339722
Ljubljana Jože Pučnik Airport,Ljubljana,Slovenia,LJU,46.223701,14.4576,1050504.0992753173
Banak Airport,Lakselv,Norway,LKL,70.068801879883,24.973499298096,12822.497281471784
Leknes Airport,Leknes,Norway,LKN,68.152496337891,13.609399795532,20764.7743194532
Luleå Airport,Lulea,Sweden,LLA,65.543800354004,22.121999740601,233648.9339792077
Lampedusa Airport,Lampedusa,Italy,LMP,35.497898,12.6181,127421.16612371586
Linz Hörsching Airport,Linz,Austria,LNZ,48.2332,14.1875,558591.8262375607
Linköping City Airport,Linkoeping,Sweden,LPI,58.4062004089,15.6805000305,116416.62907369614
Liverpool John Lennon Airport,Liverpool,United Kingdom,LPL,53.33359909057617,-2.849720001220703,2331429.609525794
Lappeenranta Airport,Lappeenranta,Finland,LPP,61.044601,28.144743,386504.1904175766
Le Puy-Loudes Airport,Le Puy,France,LPY,45.0806999206543,3.762890100479126,255357.44582294932
La Rochelle-Île de Ré Airport,La Rochelle,France,LRH,46.17919921875,-1.1952799558639526,569849.8999957832
Leros Airport,Leros,Greece,LRS,37.184898,26.800301,341538.5873582358
Lorient South Brittany (Bretagne Sud) Airport,Lorient,France,LRT,47.76060104370117,-3.440000057220459,249137.76057101387
Sumburgh Airport,Sumburgh,United Kingdom,LSI,59.87889862060547,-1.295560002326965,10322.941745817112
London Luton Airport,London,United Kingdom,LTN,51.874698638916016,-0.3683330118656158,3712296.911362089
Lugano Airport,Lugano,Switzerland,LUG,46.00429916379999,8.9105796814,278743.3620402741
Luxembourg-Findel International Airport,Luxemburg,Luxembourg,LUX,49.6233333,6.2044444,2339826.2423897767
Lublin Airport,Lublin,Poland,LUZ,51.240278,22.713611,1876918.1382017464
Lviv International Airport,Lvov,Ukraine,LWO,49.8125,23.956100463867188,5117162.628728041
Limnos Airport,Limnos,Greece,LXS,39.917098999,25.236299514799995,453916.7756017725
Lycksele Airport,Lycksele,Sweden,LYC,64.54830169677734,18.71619987487793,110900.728100788
Lyon Saint-Exupéry Airport,Lyon,France,LYS,45.725556,5.081111,4539598.275953008
Adolfo Suárez Madrid–Barajas Airport,Madrid,Spain,MAD,40.471926,-3.56264,10884844.805099802
Menorca Airport,Menorca,Spain,MAH,39.86259841918945,4.218649864196777,70686.905712487
Manchester Airport,Manchester,United Kingdom,MAN,53.35369873046875,-2.2749500274658203,8330090.043694504
Mehamn Airport,Mehamn,Norway,MEH,71.02970123291,27.826700210571,14022.075896480374
Mannheim-City Airport,Mannheim,Germany,MHG,49.473057,8.514167,200505.13524493907
Mariehamn Airport,Mariehamn,Finland,MHQ,60.122200012207,19.898199081421,126842.29457863358
Mosjøen Airport (Kjærstad),Mosjoen,Norway,MJF,65.783996582031,13.214900016785,26605.768590523363
Mytilene International Airport,Mytilini,Greece,MJT,39.0567016602,26.5983009338,544226.2693508634
San Javier Airport,Murcia,Spain,MJV,37.775001525878906,-0.8123890161514282,1367099.6409187175
Malta International Airport,Malta,Malta,MLA,35.857498,14.4775,835119.0446946226
Melilla Airport,Melilla,Spain,MLN,35.279800415,-2.9562599659,714973.374240581
Milos Airport,Milos,Greece,MLO,36.696899,24.4769,92494.87744459989
Malatya Erhaç Airport,Malatya,Turkey,MLX,38.4352989197,38.0909996033,1772016.823141456
Durham Tees Valley Airport,Teesside,United Kingdom,MME,54.50920104980469,-1.4294099807739258,218109.38636361767
Malmö Sturup Airport,Malmoe,Sweden,MMX,55.536305364,13.3761978149,602990.1627167494
Molde Airport,Molde,Norway,MOL,62.744701385498,7.2624998092651,82078.30605817023
Montpellier-Méditerranée Airport,Montpellier,France,MPL,43.57619857788086,3.96301007270813,877738.5047561737
Mardin Airport,Mardin,Turkey,MQM,37.2233009338,40.6316986084,2362815.320302609
"Mo i Rana Airport, Røssvoll",Mo i Rana,Norway,MQN,66.363899230957,14.301400184631,23450.47989594912
Marseille Provence Airport,Marseille,France,MRS,43.439271922,5.22142410278,2944479.819175129
Minsk National Airport,Minsk 2,Belarus,MSQ,53.882499694824,28.030700683594,5251849.3636313
Muş Airport,Mus,Turkey,MSR,38.74779891967773,41.66120147705078,1135591.5417046202
Maastricht Aachen Airport,Maastricht,Netherlands,MST,50.911701,5.77014,627015.9403008183
Munich Airport,Munich,Germany,MUC,48.353802,11.7861,7884875.989647451
Malpensa International Airport,Milano,Italy,MXP,45.6306,8.72811,6433888.95812188
Mora Airport,Mora,Sweden,MXX,60.957901,14.5114,130555.60150541914
Amasya Merzifon Airport,Merzifon,Turkey,MZH,40.829399,35.521999,993471.0404425176
Naples International Airport,Naples,Italy,NAP,40.886002,14.2908,3121254.531525367
Nevşehir Kapadokya Airport,Nevsehir,Turkey,NAV,38.7719,34.5345,1010591.494900314
Nice-Côte d'Azur Airport,Nice,France,NCE,43.6584014893,7.215869903560001,2613329.7800768684
Newcastle Airport,Newcastle,United Kingdom,NCL,55.03749847412109,-1.6916699409484863,2070224.6644281445
Sanday Airport,Sanday,United Kingdom,NDY,59.250301361083984,-2.576669931411743,38292.30024285902
Ireland West Knock Airport,Connaught,Ireland,NOC,53.910301208496094,-8.818490028381348,435351.8573617985
Newquay Cornwall Airport,Newquai,United Kingdom,NQY,50.44060134887695,-4.995409965515137,207325.89243991347
Norrköping Airport,Norrkoeping,Sweden,NRK,58.58629989624024,16.250600814819336,87993.56175909386
North Ronaldsay Airport,North Ronaldsay,United Kingdom,NRL,59.3675003052,-2.43443989754,27913.978087663345
Weeze Airport,Weeze,Germany,NRN,51.6024017334,6.14216995239,2190886.066149538
Nantes Atlantique Airport,Nantes,France,NTE,47.153198242200006,-1.61073005199,3123225.9150058045
Nuremberg Airport,Nuernberg,Germany,NUE,49.498699,11.078056,1799811.0817816425
Narvik Framnes Airport,Narvik,Norway,NVK,68.436897277832,17.386699676514,12582.793094127624
Norwich International Airport,Norwich,United Kingdom,NWI,52.6758003235,1.28278005123,518824.9732519981
Stockholm Skavsta Airport,Stockholm,Sweden,NYO,58.78860092163086,16.912200927734375,545000.1600046522
Odessa International Airport,Odessa,Ukraine,ODS,46.42679977416992,30.67650032043457,2512313.1561504914
Örnsköldsvik Airport,Ornskoldsvik,Sweden,OER,63.40829849243164,18.989999771118164,63215.935262228304
Ørland Airport,Orland,Norway,OLA,63.69889831542969,9.604000091552734,28542.791655843164
Olbia Costa Smeralda Airport,Olbia,Italy,OLB,40.898701,9.51763,413875.9973349889
Mostar International Airport,Mostar,Bosnia and Herzegovina,OMO,43.282901763916016,17.84589958190918,184975.83174777147
Oradea International Airport,Oradea,Romania,OMR,47.025299072265625,21.90250015258789,502510.3304940608
Zonguldak Airport,Zonguldak,Turkey,ONQ,41.506401062,32.0886001587,420809.9630208805
Francisco de Sá Carneiro Airport,Porto,Portugal,OPO,41.2481002808,-8.68138980865,4886556.534855902
Örebro Airport,Orebro,Sweden,ORB,59.22370147705078,15.038000106811523,173488.40977241338
Cork Airport,Cork,Ireland,ORK,51.84130096435547,-8.491109848022461,541668.9422266199
Paris-Orly Airport,Paris,France,ORY,48.7233333,2.3794444,5985134.614940588
Åre Östersund Airport,Östersund,Sweden,OSD,63.194400787354,14.50030040741,76447.97561156242
Osijek Airport,Osijek,Croatia,OSI,45.46269989013672,18.810199737548828,622997.0474254766
Oslo Lufthavn,Oslo,Norway,OSL,60.121,11.0502,2075649.100311071
Ostrava Leos Janáček Airport,Ostrava,Czech Republic,OSR,49.6963005065918,18.111099243164062,783550.1609066318
Ostend-Bruges International Airport,Ostend,Belgium,OST,51.1988983154,2.8622200489,185812.10540258465
Namsos Høknesøra Airport,Namsos,Norway,OSY,64.472198486328,11.57859992981,51792.231412271365
Henri Coandă International Airport,Bucharest,Romania,OTP,44.5711111,26.085,19187044.628202297
Oulu Airport,Oulu,Finland,OUL,64.930099487305,25.354600906372,159684.49756186013
Asturias Airport,Aviles,Spain,OVD,43.5635986328125,-6.0346198081970215,742926.8580429794
Zaporizhzhia International Airport,Zaporozhye,Ukraine,OZH,47.867000579833984,35.31570053100586,1515301.6646596862
Paderborn Lippstadt Airport,Paderborn,Germany,PAD,51.6141014099,8.616319656369999,658293.6427594094
Paros National Airport,Paros,Greece,PAS,37.020495,25.113195,157199.36744168514
Plovdiv International Airport,Plovdiv,Bulgaria,PDV,42.067799,24.8508,356974.0954918315
Perugia San Francesco d'Assisi – Umbria International Airport,Perugia,Italy,PEG,43.095901,12.5132,309783.05153803306
Perpignan-Rivesaltes (Llabanère) Airport,Perpignan,France,PGF,42.74039840698242,2.8706700801849365,393527.0426775028
Périgueux-Bassillac Airport,Perigueux,France,PGX,45.19810104370117,0.815555989742279,293042.3536395048
Glasgow Prestwick Airport,Prestwick,United Kingdom,PIK,55.5093994140625,-4.586669921875,755289.6792258137
Poitiers-Biard Airport,Poitiers,France,PIS,46.58769989013672,0.3066659867763519,505360.97745063296
Pajala Airport,Pajala,Sweden,PJA,67.24559783935547,23.06889915466309,53432.517002165645
Palanga International Airport,Palanga,Lithuania,PLQ,55.97320175170898,21.093900680541992,380222.79216411104
Parma Airport,Parma,Italy,PMF,44.824501,10.2964,356110.98359556706
Palma De Mallorca Airport,Palma de Mallorca,Spain,PMI,39.551700592,2.73881006241,1488447.7268108109
Falcone–Borsellino Airport,Palermo,Italy,PMO,38.175999,13.091,1344349.0726885658
Pamplona Airport,Pamplona,Spain,PNA,42.77000045776367,-1.6463299989700315,219023.1646441541
Pantelleria Airport,Pantelleria,Italy,PNL,36.816502,11.9689,395831.310028802
Pori Airport,Pori,Finland,POR,61.461700439453,21.799999237061,212571.1569770556
Poznań-Ławica Airport,Poznan,Poland,POZ,52.4210014343,16.8262996674,1964660.354259974
Papa Westray Airport,Papa Westray,United Kingdom,PPW,59.351699829100006,-2.9002799987800003,37655.21562430127
Václav Havel Airport Prague,Prague,Czech Republic,PRG,50.1008,14.26,6682584.462298878
Priština International Airport,Pristina,Serbia,PRN,42.5728,21.035801,1643821.7751105735
Pisa International Airport,Pisa,Italy,PSA,43.683899,10.3927,2407421.777284019
Pescara International Airport,Pescara,Italy,PSR,42.431702,14.1811,649937.109404061
Pau Pyrénées Airport,Pau,France,PUF,43.380001068115234,-0.4186109900474548,489330.443176145
Pula Airport,Pula,Croatia,PUY,44.89350128173828,13.922200202941896,707596.387908996
Aktion National Airport,Preveza,Greece,PVK,38.92549896240234,20.765300750732425,280662.2921585868
Porto Santo Airport,Porto Santo,Portugal,PXO,33.0733985901,-16.3500003815,31396.742581032035
Rodez-Marcillac Airport,Rodez,France,RDZ,44.407901763916016,2.4826700687408447,388257.8614336982
Reggio Calabria Airport,Reggio Calabria,Italy,REG,38.071201,15.6516,301753.77138288465
Røst Airport,Røst,Norway,RET,67.527801513672,12.103300094604,13604.37915136661
Reus Air Base,Reus,Spain,REU,41.14739990234375,1.1671700477600098,773221.2714975836
Burgos Airport,Burgos,Spain,RGS,42.357601,-3.62076,418628.0239580239
Diagoras Airport,Rhodos,Greece,RHO,36.405399322509766,28.086200714111328,1073123.123975505
Riga International Airport,Riga,Latvia,RIX,56.92359924316406,23.971099853515625,3060686.3749063355
Rijeka Airport,Rijeka,Croatia,RJK,45.21689987182617,14.570300102233888,404585.4037027208
Logroño-Agoncillo Airport,Logroño-Agoncillo,Spain,RJL,42.4609534888,-2.32223510742,285200.6263637876
Rostock-Laage Airport,Laage,Germany,RLG,53.9182014465,12.2783002853,465515.186720174
Ronneby Airport,Ronneby,Sweden,RNB,56.266700744629,15.265000343323,157339.08790735903
Bornholm Airport,Ronne,Denmark,RNN,55.06330108642578,14.759599685668944,173531.49576161036
Rennes-Saint-Jacques Airport,Rennes,France,RNS,48.0694999695,-1.73478996754,668983.4372484245
Røros Airport,Roros,Norway,RRS,62.578399658203,11.342300415039,41106.949789590784
Rotterdam The Hague Airport,Rotterdam,Netherlands,RTM,51.956902,4.43722,1402276.7327970213
"Rørvik Airport, Ryum",Rørvik,Norway,RVK,64.838302612305,11.14610004425,53178.95947093532
Rovaniemi Airport,Rovaniemi,Finland,RVN,66.564796447754,25.830400466919,63466.709787924345
"Moss Airport, Rygge",Rygge,Norway,RYG,59.378817,10.785439,704628.2021925782
Rzeszów-Jasionka Airport,Rzeszow,Poland,RZE,50.1100006104,22.0189990997,2407563.64917524
Sabiha Gökçen International Airport,Istanbul,Turkey,SAW,40.898601532,29.3092002869,8075084.025910998
Sibiu International Airport,Sibiu,Romania,SBZ,45.78559875488281,24.09129905700684,1030302.421667838
Saarbrücken Airport,Saarbruecken,Germany,SCN,49.2145996094,7.10950994492,282634.6313929167
Santiago de Compostela Airport,Santiago,Spain,SCQ,42.89630126953125,-8.415140151977539,2140859.9620234505
Sundsvall-Härnösand Airport,Sundsvall,Sweden,SDL,62.528099060058594,17.443899154663086,108283.89327101824
Sandane Airport (Anda),Sandane,Norway,SDN,61.830001831055,6.1058301925659,47683.406466102606
Santander Airport,Santander,Spain,SDR,43.42710113525391,-3.82000994682312,1063204.5714101077
Southend Airport,Southend,United Kingdom,SEN,51.5713996887207,0.6955559849739075,592418.1062149431
Skellefteå Airport,Skelleftea,Sweden,SFT,64.62480163574219,21.07690048217773,101694.3809200652
Sønderborg Airport,Soenderborg,Denmark,SGD,54.96440124511719,9.791729927062988,223896.26863279592
Simferopol International Airport,Simferopol,Ukraine,SIP,45.05220031738281,33.975101470947266,1356780.502089442
Sarajevo International Airport,Sarajevo,Bosnia and Herzegovina,SJJ,43.82460021972656,18.331499099731445,1238177.2061576915
Skien Airport,Skien,Norway,SKE,59.185001373291016,9.566940307617188,95052.61887512356
Thessaloniki Macedonia International Airport,Thessaloniki,Greece,SKG,40.51969909667969,22.97089958190918,2596919.1198169896
Stokmarknes Skagen Airport,Stokmarknes,Norway,SKN,68.578826904297,15.033416748047,22942.998864267363
Skopje Alexander the Great Airport,Skopje,Macedonia,SKP,41.961601,21.621401,2042063.619958484
Skiros Airport,Skiros,Greece,SKU,38.9676017761,24.4871997833,241504.24298242695
Salamanca Airport,Salamanca,Spain,SLM,40.95209884643555,-5.501989841461182,304651.4052654534
Samos Airport,Samos,Greece,SMI,37.68999862670898,26.911699295043945,435770.791337951
Shannon Airport,Shannon,Ireland,SNN,52.702,-8.92482,604465.7854237261
Sofia Airport,Sofia,Bulgaria,SOF,42.69669342041016,23.411436080932617,3831150.281636132
Sogndal Airport,Sogndal,Norway,SOG,61.156101,7.13778,149134.490663464
Sørkjosen Airport,Sorkjosen,Norway,SOJ,69.786796569824,20.959400177002,18192.651883190265
Southampton Airport,Southampton,United Kingdom,SOU,50.95029830932617,-1.3567999601364136,1100943.166038388
Stronsay Airport,Stronsay,United Kingdom,SOY,59.1553001404,-2.64139008522,37486.79334971995
Split Airport,Split,Croatia,SPU,43.53889846801758,16.29800033569336,1394865.526836747
Stord Airport,Stord,Norway,SRP,59.791900634765625,5.340849876403809,61429.59341127119
Sandnessjøen Airport (Stokka),Sandnessjoen,Norway,SSJ,65.956802368164,12.468899726868,24487.07822124052
London Stansted Airport,London,United Kingdom,STN,51.8849983215,0.234999999404,6224873.808765771
Stuttgart Airport,Stuttgart,Germany,STR,48.6898994446,9.22196006775,4000233.2246014033
Lamezia Terme Airport,Lamezia,Italy,SUF,38.905399,16.2423,943850.982285577
Satu Mare Airport,Satu Mare,Romania,SUJ,47.70330047607422,22.88570022583008,651415.3714557146
Stavanger Airport Sola,Stavanger,Norway,SVG,58.876701354,5.6377801895,349003.241064807
Svolvær Helle Airport,Svolvær,Norway,SVJ,68.243301391602,14.669199943542,21332.43157151522
Savonlinna Airport,Savonlinna,Finland,SVL,61.943099975586,28.945100784302,281115.8773704045
Sevilla Airport,Sevilla,Spain,SVQ,37.417999267578125,-5.8931097984313965,2447434.202961041
Strasbourg Airport,Strasbourg,France,SXB,48.53829956054688,7.628230094909668,1233020.9891880814
Berlin-Schönefeld Airport,Berlin,Germany,SXF,52.380001,13.5225,4750147.226292509
Stornoway Airport,Stornoway,United Kingdom,SYY,58.215599060058594,-6.331110000610352,33506.02969864963
Salzburg Airport,Salzburg,Austria,SZG,47.7933006287,13.0043001175,1150276.9686543802
"Szczecin-Goleniów ""Solidarność"" Airport",Szczecin,Poland,SZZ,53.584701538100006,14.9021997452,646830.8285988872
Tartu Airport,Tartu,Estonia,TAY,58.3074989319,26.690399169900004,249339.088505608
Tekirdağ Çorlu Airport,Çorlu,Turkey,TEQ,41.13819885253906,27.919099807739254,314220.65225128125
Podgorica Airport,Podgorica,Montenegro,TGD,42.359402,19.2519,887335.5691949899
Transilvania Târgu Mureş International Airport,Tirgu Mures,Romania,TGM,46.46770095825195,24.412500381469727,763334.6565423069
Trollhättan-Vänersborg Airport,Trollhattan,Sweden,THN,58.31809997558594,12.345000267028809,116278.20373832928
Tirana International Airport Mother Teresa,Tirana,Albania,TIA,41.4146995544,19.7206001282,1214573.265519377
Tivat Airport,Tivat,Montenegro,TIV,42.40470123291016,18.72330093383789,567353.9858418362
Turku Airport,Turku,Finland,TKU,60.514099121094,22.262800216675,258711.35284876337
Lennart Meri Tallinn Airport,Tallinn-ulemiste International,Estonia,TLL,59.41329956049999,24.8327999115,928160.5639774622
Toulon-Hyères Airport,Hyeres,France,TLN,43.0973014832,6.14602994919,147703.5170712641
Toulouse-Blagnac Airport,Toulouse,France,TLS,43.629101,1.36382,2635768.279946451
Tampere-Pirkkala Airport,Tampere,Finland,TMP,61.414100646973,23.604400634766,377848.2994390449
"Tromsø Airport,",Tromso,Norway,TOS,69.68329620361328,18.91889953613281,88972.59384664103
Vincenzo Florio Airport Trapani-Birgi,Trapani,Italy,TPS,37.9114,12.488,1001206.7051029956
Trondheim Airport Værnes,Trondheim,Norway,TRD,63.4578018,10.9239998,294808.14241505536
Tiree Airport,Tiree,United Kingdom,TRE,56.49919891357422,-6.869170188903809,82010.19741503101
"Sandefjord Airport, Torp",Sandefjord,Norway,TRF,59.1866989136,10.258600235,624578.4075204233
Turin Airport,Torino,Italy,TRN,45.200802,7.64963,1486798.3403611018
Trieste–Friuli Venezia Giulia Airport,Ronchi De Legionari,Italy,TRS,45.827499,13.4722,587732.1864436888
Treviso-Sant'Angelo Airport,Treviso,Italy,TSF,45.648399,12.1944,1631184.6900456203
Timişoara Traian Vuia Airport,Timisoara,Romania,TSR,45.80989837646485,21.337900161743164,1493923.7449271644
Tours-Val-de-Loire Airport,Tours,France,TUF,47.4322013855,0.727605998516,569457.8818641774
Berlin-Tegel Airport,Berlin,Germany,TXL,52.5597,13.2877,6993777.1011552885
Torsby Airport,Torsby,Sweden,TYF,60.1576004028,12.991299629199998,137370.4141336479
Tuzla International Airport,Null,Bosnia and Herzegovina,TZL,44.45869827270508,18.72480010986328,433924.5044718832
Trabzon International Airport,Trabzon,Turkey,TZX,40.99509811401367,39.78969955444336,1050584.3337601908
Uzhhorod International Airport,Uzhgorod,Ukraine,UDJ,48.6343002319336,22.263399124145508,750191.7198245384
Quimper-Cornouaille Airport,Quimper,France,UIP,47.97499847412109,-4.167789936065674,159770.55987280054
Belbek Airport,Sevastopol,Ukraine,UKS,44.688999176,33.570999145500004,762256.1498990866
Umeå Airport,Umea,Sweden,UME,63.791801452637,20.282800674438,187700.934532194
Kuressaare Airport,Kuressaare,Estonia,URE,58.22990036010742,22.50950050354004,113862.61822553015
Vaasa Airport,Vaasa,Finland,VAA,63.050701141357,21.762199401855,120230.4306568584
Van Ferit Melen Airport,Van,Turkey,VAN,38.46820068359375,43.332298278808594,1973162.0418935623
Varna Airport,Varna,Bulgaria,VAR,43.232101,27.8251,2664683.2419401417
Sivas Nuri Demirağ Airport,Sivas,Turkey,VAS,39.813801,36.9035,1264726.154204627
"Vardø Airport, Svartnes",Vardø,Norway,VAW,70.355400085449,31.044900894165,60093.59442985541
Visby Airport,Visby,Sweden,VBY,57.662799835205,18.346200942993,130026.56486905667
Venice Marco Polo Airport,Venice,Italy,VCE,45.505299,12.3519,3445625.7891821563
Leirin Airport,Fagernes,Norway,VDB,61.015598297119,9.2880601882935,67549.14500720339
Vadsø Airport,Vadsø,Norway,VDS,70.065299987793,29.844699859619,134211.74136210614
Vigo Airport,Vigo,Spain,VGO,42.2318000793457,-8.62677001953125,691994.1645864403
Vilhelmina Airport,Vilhelmina,Sweden,VHM,64.5791015625,16.833599090576172,86248.84363483361
Vienna International Airport,Vienna,Austria,VIE,48.110298156738,16.569700241089,10462316.745321084
Valencia Airport,Valencia,Spain,VLC,39.4893,-0.481625,2081588.4325231768
Valladolid Airport,Valladolid,Spain,VLL,41.7061004639,-4.85194015503,357851.18226652243
Anglesey Airport,Angelsey,United Kingdom,VLY,53.2481002808,-4.53533983231,200143.3682949157
Vilnius International Airport,Vilnius,Lithuania,VNO,54.634102,25.285801,3653270.865713796
Nea Anchialos Airport,Nea Anghialos,Greece,VOL,39.21960067749024,22.794300079345703,266204.1088879727
Verona Villafranca Airport,Villafranca,Italy,VRN,45.395699,10.8885,1238865.3465179352
Stockholm Västerås Airport,Vasteras,Sweden,VST,59.58940124511719,16.63360023498535,104458.66295843148
Växjö Kronoberg Airport,Vaxjo,Sweden,VXO,56.92910003662109,14.727999687194824,248935.8716450256
Waterford Airport,Waterford,Ireland,WAT,52.187198638916016,-7.086959838867188,127880.22113648214
Warsaw Chopin Airport,Warsaw,Poland,WAW,52.1656990051,20.9671001434,9320244.745730964
Wick Airport,Wick,United Kingdom,WIC,58.45890045166016,-3.09306001663208,34875.33346474612
Modlin Airport,Warsaw,Poland,WMI,52.451099,20.6518,3042415.7356714
Copernicus Wrocław Airport,Wroclaw,Poland,WRO,51.1026992798,16.885799408,3854958.9283830817
Westray Airport,Westray,United Kingdom,WRY,59.3502998352,-2.95000004768,29495.81987468368
Châlons-Vatry Airport,Chalons,France,XCR,48.7733333333,4.206111111,200845.00786060383
Hamburg-Finkenwerder Airport,Hamburg,Germany,XFW,53.5352783203125,9.835556030273438,247719.94080136664
Jerez Airport,Jerez,Spain,XRY,36.74459838867188,-6.060110092163086,1006266.8632680136
Zadar Airport,Zadar,Croatia,ZAD,44.108299,15.3467,927772.4129904814
Zagreb Airport,Zagreb,Croatia,ZAG,45.7429008484,16.0687999725,1625633.0660952504
Zaragoza Air Base,Zaragoza,Spain,ZAZ,41.66619873046875,-1.0415500402450562,477943.3913873878
Zweibrücken Airport,Zweibruecken,Germany,ZQW,49.2094,7.40056,352341.3614452021
Zürich Airport,Zurich,Switzerland,ZRH,47.464699,8.54917,8014319.523055849
"Zakynthos International Airport ""Dionysios Solomos""",Zakynthos,Greece,ZTH,37.7509,20.8843,300797.7001479028
